[{"id":371,"name":"广州天环广场TOMMY专柜","ename":"广州天环广场TOMMY专柜","fullAddress":null,"ename1":"144","ename2":"113.331182,23.13761","province":"广东省","city":"广州市","district":"天河区","address":"天河路212、214、216、218、220号天环广场地下一层B164-165铺","extension":"1","phone":"","hours":"10:00-22:00","storeImage":null,"mapImage":null,"postcode":null,"platformWarehouse":null,"selfpick":null,"subscribe":null},{"id":478,"name":"长春卓展购物中心TOMMY专柜","ename":"长春卓展购物中心TOMMY专柜","fullAddress":null,"ename1":"1","ename2":"125.325637,43.897031","province":"吉林省","city":"长春市","district":"朝阳区","address":"重庆路1255号卓展购物中心二层","extension":"1","phone":"","hours":"10:00-21:00","storeImage":null,"mapImage":null,"postcode":null,"platformWarehouse":null,"selfpick":null,"subscribe":null},{"id":509,"name":"瑞安时代TOMMY专柜","ename":"瑞安时代TOMMY专柜","fullAddress":null,"ename1":"32","ename2":"120.668705,27.782275","province":"浙江省","city":"温州市","district":"瑞安市","address":"万松路与罗阳大道交叉口（银座广场）一楼\r\n","extension":"1","phone":"","hours":"10:00-22:00","storeImage":null,"mapImage":null,"postcode":null,"platformWarehouse":null,"selfpick":null,"subscribe":null},{"id":259,"name":"合肥万象城TOMMY 专柜","ename":"合肥万象城TOMMY 专柜","fullAddress":null,"ename1":"114","ename2":"117.237125,31.805838","province":"安徽省","city":"合肥市","district":"","address":"习友路与潜山路交口华润万象城一楼","extension":"1","phone":"","hours":"10:00-22:00","storeImage":null,"mapImage":null,"postcode":null,"platformWarehouse":null,"selfpick":null,"subscribe":null},{"id":317,"name":"福州惠隆贵安奥莱TOMMY专柜","ename":"福州惠隆贵安奥莱TOMMY专柜","fullAddress":null,"ename1":"229","ename2":"119.403956,26.253315","province":"福建省","city":"福州市","district":"连江县","address":"连江县贵安新天地世纪金源奥特莱斯广场2号A-017","extension":"1","phone":"","hours":"10:00-22:00","storeImage":null,"mapImage":null,"postcode":null,"platformWarehouse":null,"selfpick":null,"subscribe":null},{"id":181,"name":"淮安金鹰TOMMY专柜","ename":"淮安金鹰TOMMY专柜","fullAddress":null,"ename1":"274","ename2":"119.037339,33.604227","province":"江苏省","city":"淮安市","district":"","address":"淮海东路130号金鹰一楼","extension":"1","phone":"","hours":"周日到周四10:00到21:30闭；周五六日10:00到22:00","storeImage":null,"mapImage":null,"postcode":null,"platformWarehouse":null,"selfpick":null,"subscribe":null},{"id":364,"name":"深圳九方TOMMY专柜","ename":"深圳九方TOMMY专柜","fullAddress":null,"ename1":"277","ename2":"114.08957,22.548859","province":"广东省","city":"深圳市","district":"福田区","address":"华富路1018号中航华强北九方购物中心北区一楼L126号商铺","extension":"1","phone":"","hours":"10:00-22:00","storeImage":null,"mapImage":null,"postcode":null,"platformWarehouse":null,"selfpick":null,"subscribe":null},{"id":361,"name":"深圳东门茂业TOMMYJEANS专柜","ename":"深圳东门茂业TOMMYJEANS专柜","fullAddress":null,"ename1":"338","ename2":"114.133021,22.549178","province":"广东省","city":"深圳市","district":"罗湖区","address":"东门中路2047号茂业百货三楼TOMMY专柜","extension":"1","phone":"0755-82273290","hours":"10:00-22:00","storeImage":null,"mapImage":null,"postcode":null,"platformWarehouse":"GDSZTDMD ","selfpick":true,"subscribe":true},{"id":539,"name":"深圳大仟里TOMMYJEANS专柜","ename":"深圳大仟里TOMMYJEANS专柜","fullAddress":null,"ename1":"","ename2":"113.87345,22.57227","province":"广东省","city":"深圳市","district":"宝安区","address":"西乡街道麻布社区海城路3号前城滨海花园2栋L176-186店铺","extension":"1","phone":"0755-23205914","hours":"10：00-22：00","storeImage":null,"mapImage":null,"postcode":null,"platformWarehouse":"","selfpick":false,"subscribe":false},{"id":540,"name":"顺德海骏达城TOMMY HILFIGER专柜","ename":"顺德海骏达城TOMMY HILFIGER专柜","fullAddress":null,"ename1":"","ename2":"113.28204,22.765228","province":"广东省","city":"佛山市","district":"顺德区","address":"容桂洲大道中顺德海骏达城","extension":"1","phone":"","hours":"","storeImage":null,"mapImage":null,"postcode":null,"platformWarehouse":"","selfpick":false,"subscribe":false},{"id":537,"name":"上海闵行龙湖天街TOMMY JEANS专柜","ename":"上海闵行龙湖天街TOMMY JEANS专柜","fullAddress":null,"ename1":"","ename2":"121.421429,31.031981","province":"上海","city":"上海市","district":"闵行区","address":"上海市闵行区剑川路1000弄1层A-1F-20 -23单元","extension":"1","phone":"021-54303623","hours":"","storeImage":null,"mapImage":null,"postcode":null,"platformWarehouse":"SHSHTLHT","selfpick":true,"subscribe":true},{"id":532,"name":"北京朝北大悦城TOMMY JEANS专柜","ename":"北京朝北大悦城TOMMY JEANS专柜","fullAddress":null,"ename1":"320","ename2":"116.525387,39.931386","province":"北京","city":"北京市","district":"朝阳区","address":"朝阳北路101号与青年路交叉口东北角朝阳大悦城2层-038","extension":"1","phone":"010-85855315","hours":"10:00-22:00","storeImage":null,"mapImage":null,"postcode":null,"platformWarehouse":"BJBJTCYJ","selfpick":true,"subscribe":true},{"id":538,"name":"上海来福士TOMMY JEANS专柜","ename":"上海来福士TOMMY JEANS专柜","fullAddress":null,"ename1":"","ename2":"121.483112,31.238313","province":"上海","city":"上海市","district":"黄浦区","address":"上海黄浦区西藏中路268号1F 01-01C","extension":"1","phone":"","hours":"","storeImage":null,"mapImage":null,"postcode":null,"platformWarehouse":"SHSHTRCT","selfpick":true,"subscribe":true},{"id":479,"name":"哈尔滨中央商场TOMMY专柜","ename":"哈尔滨中央商场TOMMY专柜","fullAddress":null,"ename1":"2","ename2":"126.625266,45.778125","province":"黑龙江省","city":"哈尔滨市","district":"道里区","address":"中央大街100号二层TOMMY专柜","extension":"1","phone":"","hours":"09:30-21:00","storeImage":null,"mapImage":null,"postcode":null,"platformWarehouse":null,"selfpick":null,"subscribe":null},{"id":510,"name":"瑞安吾悦TOMMY专柜","ename":"瑞安吾悦TOMMY专柜","fullAddress":null,"ename1":"33","ename2":"120.668147,27.788102","province":"浙江省","city":"温州市","district":"瑞安市","address":"瑞祥大道1158号瑞安新城吾悦广场3号门一楼1005号tommy专柜\r\n","extension":"1","phone":"","hours":"10:00-22:00","storeImage":null,"mapImage":null,"postcode":null,"platformWarehouse":null,"selfpick":null,"subscribe":null},{"id":207,"name":"成都来福士TOMMY专柜","ename":"成都来福士TOMMY专柜","fullAddress":null,"ename1":"178","ename2":"104.073803,30.637755","province":"四川省","city":"成都市","district":"武侯区","address":"人民南路四段三号1F","extension":"1","phone":"","hours":"星期一至星期四.星期日10：00—22：00星期五六10：00—22：30","storeImage":null,"mapImage":null,"postcode":null,"platformWarehouse":null,"selfpick":null,"subscribe":null},{"id":161,"name":"衢州东方TOMMY专柜","ename":"衢州东方TOMMY专柜","fullAddress":null,"ename1":"235","ename2":"118.881357,28.958102","province":"浙江省","city":"衢州市","district":"柯城区","address":"劳动路1号东方商厦B座一楼","extension":"1","phone":"","hours":"周一至周四、周日（10:00-21:30；周五、周六（10:00-22:00）","storeImage":null,"mapImage":null,"postcode":null,"platformWarehouse":null,"selfpick":null,"subscribe":null},{"id":516,"name":"上海久光百货TOMMY JEANS专柜","ename":"上海久光百货TOMMY JEANS专柜","fullAddress":null,"ename1":"418","ename2":"121.452483,31.229968","province":"上海","city":"上海市","district":"静安区","address":"南京西路1618号4F\r\n","extension":"1","phone":"","hours":"10：00-22：00","storeImage":null,"mapImage":null,"postcode":null,"platformWarehouse":"SHSHTSGT","selfpick":true,"subscribe":true},{"id":36,"name":"北京东方新天地TOMMY JEANS专柜","ename":"北京东方新天地TOMMY JEANS专柜","fullAddress":null,"ename1":"372","ename2":"116.418745,39.915936","province":"北京","city":"北京市","district":"东城区","address":"北京市东城区东长安街1号北京东方广场东方新天地商场-1FBB29  Tommy Hilfiger专柜","extension":"1","phone":"010-65227816","hours":"10：00-22：00","storeImage":null,"mapImage":null,"postcode":null,"platformWarehouse":"BJBJTXTDD","selfpick":true,"subscribe":true},{"id":541,"name":"北京王府中环TOMMY专柜","ename":"北京王府中环TOMMY专柜","fullAddress":null,"ename1":"","ename2":"116.416055,39.918874","province":"北京","city":"北京市","district":"东城区","address":"王府井大街269号1号院王府中环3层316A","extension":"1","phone":"","hours":"","storeImage":null,"mapImage":null,"postcode":null,"platformWarehouse":"","selfpick":false,"subscribe":false},{"id":480,"name":"太原万象城TOMMY JEANS专柜","ename":"太原万象城TOMMY JEANS专柜","fullAddress":null,"ename1":"3","ename2":"112.535358,37.813786","province":"山西省","city":"太原市","district":"万柏林区","address":"长兴路5号华润万象城购物中心 L208号 \r\n","extension":"1","phone":"","hours":"10:00-22:00","storeImage":null,"mapImage":null,"postcode":null,"platformWarehouse":null,"selfpick":null,"subscribe":null},{"id":224,"name":"西安世纪金花高新店TOMMY专柜","ename":"西安世纪金花高新店TOMMY专柜","fullAddress":null,"ename1":"238","ename2":"108.91002,34.237534","province":"陕西省","city":"西安市","district":"雁塔区","address":"科技路33号世纪金花高新购物中心三楼","extension":"1","phone":"","hours":"10：00-22：00","storeImage":null,"mapImage":null,"postcode":null,"platformWarehouse":null,"selfpick":null,"subscribe":null},{"id":261,"name":"南昌红谷滩万达TOMMY专柜","ename":"南昌红谷滩万达TOMMY专柜","fullAddress":null,"ename1":"384","ename2":"115.910945,28.674201","province":"江西省","city":"南昌市","district":"西湖区","address":"八一大道177号一楼","extension":"1","phone":"","hours":"10：00-22：00","storeImage":null,"mapImage":null,"postcode":null,"platformWarehouse":null,"selfpick":null,"subscribe":null},{"id":534,"name":"深圳KKMALL TOMMY JEANS专柜","ename":"深圳KKMALL TOMMY JEANS专柜","fullAddress":null,"ename1":"500","ename2":"114.106438,22.542835","province":"广东省","city":"深圳市","district":"罗湖区","address":"蔡屋围蔡屋围京基金融中心裙楼自用商业02层01-206号商铺","extension":"1","phone":"0755-82241304","hours":"","storeImage":null,"mapImage":null,"postcode":null,"platformWarehouse":"GDSZTKKD","selfpick":true,"subscribe":true},{"id":517,"name":"上海周浦万达TOMMY JEANS专柜","ename":"上海周浦万达TOMMY JEANS专柜","fullAddress":null,"ename1":"419","ename2":"121.574904,31.12079","province":"上海","city":"上海市","district":"浦东新区","address":"上海市浦东新区沪南路3449号1F 115/116-1-1\r\n","extension":"1","phone":"","hours":"10:00-22:00","storeImage":null,"mapImage":null,"postcode":null,"platformWarehouse":"SHSHTZPD","selfpick":true,"subscribe":true},{"id":481,"name":"西安MOMOPARK TOMMYJEANS 专柜","ename":"西安MOMOPARK TOMMYJEANS 专柜","fullAddress":null,"ename1":"4","ename2":"108.939756,34.227867","province":"陕西省","city":"西安市","district":"雁塔区","address":"长小寨西路232号吉祥村十字东南角MOMO Park 购物中心TOMMY专柜\r\n","extension":"1","phone":"","hours":"10:00-22:00","storeImage":null,"mapImage":null,"postcode":null,"platformWarehouse":null,"selfpick":null,"subscribe":null},{"id":482,"name":"西安赛格购物中心TOMMYJEANS专柜","ename":"西安赛格购物中心TOMMYJEANS专柜","fullAddress":null,"ename1":"5","ename2":"108.954216,34.230068","province":"陕西省","city":"西安市","district":"雁塔区","address":"长安中路123号小寨赛格国际购物中心负1F\r\n","extension":"1","phone":"","hours":"10:00-22:00（周末延后30分钟）","storeImage":null,"mapImage":null,"postcode":null,"platformWarehouse":null,"selfpick":null,"subscribe":null},{"id":512,"name":"惠州华贸TOMMY专柜","ename":"惠州华贸TOMMY专柜","fullAddress":null,"ename1":"35","ename2":"114.421679,23.109412","province":"广东省","city":"惠州市","district":"惠城区","address":"江北文昌一路九号华贸天地1115铺\r\n","extension":"1","phone":"","hours":"10:00-22:00","storeImage":null,"mapImage":null,"postcode":null,"platformWarehouse":null,"selfpick":null,"subscribe":null},{"id":514,"name":"重庆凯瑞商都TOMMY专柜","ename":"重庆凯瑞商都TOMMY专柜","fullAddress":null,"ename1":"390","ename2":"106.467989,29.563957","province":"重庆","city":"重庆市","district":"沙坪坝区","address":"双巷子6号新世纪百货凯瑞商都2楼\r\n","extension":"1","phone":"","hours":"10:00-22:00","storeImage":null,"mapImage":null,"postcode":null,"platformWarehouse":null,"selfpick":null,"subscribe":null},{"id":535,"name":"深圳深国投TOMMYJEANS专柜","ename":"深圳深国投TOMMYJEANS专柜","fullAddress":null,"ename1":"501","ename2":"113.894819,22.544341","province":"广东省","city":"深圳市","district":"福田区","address":"深圳福田区农林路69号01-69/70 Tommy Jeans专柜","extension":"1","phone":"","hours":"10：00-22：00","storeImage":null,"mapImage":null,"postcode":null,"platformWarehouse":"GDSZTSGD","selfpick":true,"subscribe":true},{"id":513,"name":"崇光九江九方TOMMY专柜","ename":"崇光九江九方TOMMY专柜","fullAddress":null,"ename1":"36","ename2":"115.983544,29.691765","province":"江西省","city":"九江市","district":"其它区","address":"长虹西大道101号一楼L159-L160\r\n","extension":"1","phone":"","hours":"10:00-22:00","storeImage":null,"mapImage":null,"postcode":null,"platformWarehouse":null,"selfpick":null,"subscribe":null},{"id":515,"name":"福州东方百货东街店TOMMY专柜","ename":"福州东方百货东街店TOMMY专柜","fullAddress":null,"ename1":"392","ename2":"119.301318,26.091777","province":"福建省","city":"福州市","district":"鼓楼区","address":"八一七北路88号东百百货二楼A1-019\r\n","extension":"1","phone":"","hours":"9:00-22:30","storeImage":null,"mapImage":null,"postcode":null,"platformWarehouse":null,"selfpick":null,"subscribe":null},{"id":536,"name":"上海宝山万达TOMMY DENIM专柜","ename":"上海宝山万达TOMMY DENIM专柜","fullAddress":null,"ename1":"502","ename2":"121.452895,31.330507","province":"上海","city":"上海市","district":"宝山区","address":"上海市宝山区一二八纪念路968号万达广场1楼126A","extension":"1","phone":"021-66059322","hours":"10：00-22：00","storeImage":null,"mapImage":null,"postcode":null,"platformWarehouse":"SHSHTWDD","selfpick":true,"subscribe":true},{"id":483,"name":"上海置汇旭辉TOMMY JEANS专柜","ename":"上海置汇旭辉TOMMY JEANS专柜","fullAddress":null,"ename1":"6","ename2":"121.560908,31.248177","province":"上海","city":"上海市","district":"浦东新区","address":"张杨路2389弄2号置汇旭辉广场购物中心1F-13A室\r\n","extension":"1","phone":"","hours":"10:00-22:00","storeImage":null,"mapImage":null,"postcode":null,"platformWarehouse":"SHSHTXHT","selfpick":true,"subscribe":true},{"id":484,"name":"北京赛特TOMMY OUTLETS","ename":"北京赛特TOMMY OUTLETS","fullAddress":null,"ename1":"7","ename2":"116.511824,40.042777","province":"北京","city":"北京市","district":"朝阳区","address":"香江北路28号赛特奥特莱斯TOMMY1-096\r\n","extension":"1","phone":"","hours":"09:30-21:30","storeImage":null,"mapImage":null,"postcode":null,"platformWarehouse":null,"selfpick":null,"subscribe":null},{"id":137,"name":"湖州浙北TOMMY专柜","ename":"湖州浙北TOMMY专柜","fullAddress":null,"ename1":"211","ename2":"120.104993,30.870322","province":"浙江省","city":"湖州市","district":"吴兴区","address":"南街659-697号新浙北大厦一楼","extension":"1","phone":"","hours":"7:00-21:30","storeImage":null,"mapImage":null,"postcode":null,"platformWarehouse":null,"selfpick":null,"subscribe":null},{"id":90,"name":"焦作王府井TOMMY专柜","ename":"焦作王府井TOMMY专柜","fullAddress":null,"ename1":"180","ename2":"113.243782,35.218666","province":"河南省","city":"焦作市","district":"解放区","address":"人民路王府井百货1F","extension":"1","phone":"","hours":"9:00-21:00;（周六&周日）10:00-21:30","storeImage":null,"mapImage":null,"postcode":null,"platformWarehouse":null,"selfpick":null,"subscribe":null},{"id":485,"name":"北京君太百货TOMMY JEANS专柜","ename":"北京君太百货TOMMY JEANS专柜","fullAddress":null,"ename1":"8","ename2":"116.379579,39.915712","province":"北京","city":"北京市","district":"西城区","address":"西单北大街133号君太百货2层TOMMY JEANS专柜\r\n","extension":"1","phone":"010-66139902","hours":"10:00-22:00","storeImage":null,"mapImage":null,"postcode":null,"platformWarehouse":"BJBJTJTD","selfpick":true,"subscribe":true},{"id":486,"name":"贵阳亨特TOMMY专柜","ename":"贵阳亨特TOMMY专柜","fullAddress":null,"ename1":"9","ename2":"106.726107,26.582321","province":"贵州省","city":"贵阳市","district":"南明区","address":"文昌南路33号一楼\r\n","extension":"1","phone":"","hours":"10:30-22:00","storeImage":null,"mapImage":null,"postcode":null,"platformWarehouse":null,"selfpick":null,"subscribe":null},{"id":167,"name":"临沂银座商城TOMMY专柜","ename":"临沂银座商城TOMMY专柜","fullAddress":null,"ename1":"288","ename2":"118.349274,35.069406","province":"山东省","city":"临沂市","district":"兰山区","address":"红旗路11号银座商城1楼","extension":"1","phone":"","hours":"10:00-21:00","storeImage":null,"mapImage":null,"postcode":null,"platformWarehouse":null,"selfpick":null,"subscribe":null},{"id":487,"name":"宁波明州里TOMMY专柜","ename":"宁波明州里TOMMY专柜","fullAddress":null,"ename1":"10","ename2":"121.548793,29.832803","province":"浙江省","city":"宁波市","district":"鄞州区","address":"四明西路7号明州里商业广场一楼 Tommy 专柜\r\n","extension":"1","phone":"","hours":"10:00-22:00","storeImage":null,"mapImage":null,"postcode":null,"platformWarehouse":null,"selfpick":null,"subscribe":null},{"id":488,"name":"乌鲁木齐德汇万达TOMMY JEANS专柜","ename":"乌鲁木齐德汇万达TOMMY JEANS专柜","fullAddress":null,"ename1":"11","ename2":"87.593837,43.795542","province":"新疆维吾尔自治区","city":"乌鲁木齐市","district":"沙依巴克区","address":"奇台路658号\r\n","extension":"1","phone":"","hours":"10:00-22:00","storeImage":null,"mapImage":null,"postcode":null,"platformWarehouse":null,"selfpick":null,"subscribe":null},{"id":295,"name":"南京江宁万达TOMMY专柜","ename":"南京江宁万达TOMMY专柜","fullAddress":null,"ename1":"42","ename2":"118.743859,32.038996","province":"江苏省","city":"南京市","district":"江宁区","address":"竹山路68号万达广场1025","extension":"1","phone":"","hours":"10:00-22:00","storeImage":null,"mapImage":null,"postcode":null,"platformWarehouse":null,"selfpick":null,"subscribe":null},{"id":489,"name":"深圳海岸城TOMMY JEANS专柜","ename":"深圳海岸城TOMMY JEANS专柜","fullAddress":null,"ename1":"12","ename2":"113.943221,22.522849","province":"广东省","city":"深圳市","district":"南山区","address":"南山商业文化中心区海岸城购物中心二层241号\r\n","extension":"1","phone":"","hours":"10:00-22:00（周末延后30分钟）","storeImage":null,"mapImage":null,"postcode":null,"platformWarehouse":"GDSZTHAD","selfpick":true,"subscribe":true},{"id":168,"name":"临沂振华TOMMY专柜","ename":"临沂振华TOMMY专柜","fullAddress":null,"ename1":"153","ename2":"118.35331,35.082834","province":"山东省","city":"临沂市","district":"兰山区","address":"涑河南街3号临沂振华百货1楼","extension":"1","phone":"","hours":"09:00-21:00","storeImage":null,"mapImage":null,"postcode":null,"platformWarehouse":null,"selfpick":null,"subscribe":null},{"id":490,"name":"上海嘉里中心TOMMY JEANS专柜","ename":"上海嘉里中心TOMMY JEANS专柜","fullAddress":null,"ename1":"13","ename2":"121.456661,31.230992","province":"上海","city":"上海市","district":"静安区","address":"南京西路1515号N3-02B \r\n","extension":"1","phone":"","hours":"10:00-22:00","storeImage":null,"mapImage":null,"postcode":null,"platformWarehouse":"SHSHTJLD","selfpick":true,"subscribe":true},{"id":491,"name":"太原万达TOMMY JEANS专柜","ename":"太原万达TOMMY JEANS专柜","fullAddress":null,"ename1":"14","ename2":"113.349165,40.069798","province":"山西省","city":"大同市","district":"南郊区","address":"南环东路与永和路交汇大同万达广场1F\r\n","extension":"1","phone":"","hours":"","storeImage":null,"mapImage":null,"postcode":null,"platformWarehouse":null,"selfpick":null,"subscribe":null},{"id":492,"name":"成都锦华万达TOMMY JEANS专柜","ename":"成都锦华万达TOMMY JEANS专柜","fullAddress":null,"ename1":"15","ename2":"104.102969,30.62634","province":"四川省","city":"成都市","district":"锦江区","address":"锦华路一段68号\r\n","extension":"1","phone":"","hours":"10:00-22:00","storeImage":null,"mapImage":null,"postcode":null,"platformWarehouse":null,"selfpick":null,"subscribe":null},{"id":493,"name":"无锡万象城TOMMY JEANS专柜","ename":"无锡万象城TOMMY JEANS专柜","fullAddress":null,"ename1":"16","ename2":"120.290337,31.519889","province":"江苏省","city":"无锡市","district":"滨湖区","address":"金石路88号万象城1F中庭 Tommy Jeans专柜\r\n","extension":"1","phone":"","hours":"10:00-22:00","storeImage":null,"mapImage":null,"postcode":null,"platformWarehouse":null,"selfpick":null,"subscribe":null},{"id":494,"name":"成都悠方TOMMY专柜","ename":"成都悠方TOMMY专柜","fullAddress":null,"ename1":"17","ename2":"104.063676,30.589266","province":"四川省","city":"成都市","district":"其它区","address":"交子大道300号悠方购物中心一层118号\r\n","extension":"1","phone":"","hours":"10:00-22:00","storeImage":null,"mapImage":null,"postcode":null,"platformWarehouse":null,"selfpick":null,"subscribe":null},{"id":72,"name":"哈尔滨枫叶小镇奥莱TOMMY专柜","ename":"哈尔滨枫叶小镇奥莱TOMMY专柜","fullAddress":null,"ename1":"47","ename2":"126.564444,45.821055","province":"黑龙江省","city":"哈尔滨市","district":"松北区","address":"中源大道16999号枫叶小镇1F","extension":"1","phone":"","hours":"9:30-20:00","storeImage":null,"mapImage":null,"postcode":null,"platformWarehouse":null,"selfpick":null,"subscribe":null},{"id":66,"name":"沈阳盾安TOMMY专柜","ename":"沈阳盾安TOMMY专柜","fullAddress":null,"ename1":"60","ename2":"123.470675,41.809419","province":"辽宁省","city":"沈阳市","district":"沈河区","address":"中街路268号沈阳盾安新一城1F","extension":"1","phone":"","hours":"10:00-21：30","storeImage":null,"mapImage":null,"postcode":null,"platformWarehouse":null,"selfpick":null,"subscribe":null},{"id":68,"name":"沈阳兴隆奥特莱斯TOMMY专柜","ename":"沈阳兴隆奥特莱斯TOMMY专柜","fullAddress":null,"ename1":"88","ename2":"123.464069,41.748132","province":"辽宁省","city":"沈阳市","district":"浑南新区","address":"营盘北街5号兴隆大奥莱A座1F","extension":"1","phone":"","hours":"10:00-22:00","storeImage":null,"mapImage":null,"postcode":null,"platformWarehouse":null,"selfpick":null,"subscribe":null},{"id":71,"name":"沈阳万象汇TOMMY 专柜","ename":"沈阳万象汇TOMMY 专柜","fullAddress":null,"ename1":"99","ename2":"123.379284,41.801478","province":"辽宁省","city":"沈阳市","district":"铁西区","address":"兴华北街万象汇1F","extension":"1","phone":"","hours":"10：00 - 21:30","storeImage":null,"mapImage":null,"postcode":null,"platformWarehouse":null,"selfpick":null,"subscribe":null},{"id":69,"name":"哈尔滨远大群力TOMMY专柜","ename":"哈尔滨远大群力TOMMY专柜","fullAddress":null,"ename1":"185","ename2":"126.564776,45.744944","province":"黑龙江省","city":"哈尔滨市","district":"","address":"群力大道1176号远大群力购物中心1F","extension":"1","phone":"","hours":"(周日~周四)09：30-21：00;(周五&周六)09：30-21:30 ","storeImage":null,"mapImage":null,"postcode":null,"platformWarehouse":null,"selfpick":null,"subscribe":null},{"id":60,"name":"天津佛罗伦萨小镇TOMMY专柜","ename":"天津佛罗伦萨小镇TOMMY专柜","fullAddress":null,"ename1":"196","ename2":"117.023761,39.381391","province":"天津","city":"请选择市/区-","district":"","address":"前进道北侧佛罗伦萨小镇019号","extension":"1","phone":"","hours":"周末节假日09：00-21：00   周一-周五10：00-21：00","storeImage":null,"mapImage":null,"postcode":null,"platformWarehouse":null,"selfpick":null,"subscribe":null},{"id":73,"name":"哈尔滨杉杉奥莱TOMMY专柜","ename":"哈尔滨杉杉奥莱TOMMY专柜","fullAddress":null,"ename1":"231","ename2":"126.56432,45.881128","province":"黑龙江省","city":"哈尔滨市","district":"呼兰区","address":"利民大道555号杉杉奥特莱斯1F","extension":"1","phone":"","hours":"10:00-21:00","storeImage":null,"mapImage":null,"postcode":null,"platformWarehouse":null,"selfpick":null,"subscribe":null},{"id":78,"name":"长春欧亚卖场TOMMY专柜","ename":"长春欧亚卖场TOMMY专柜","fullAddress":null,"ename1":"241","ename2":"125.253465,43.849525","province":"辽宁省","city":"请选择市/区-","district":"","address":"开运街5178号欧亚卖场1楼15号门1F","extension":"1","phone":"","hours":"夏季9:00-20:30 冬季9：00-21：00","storeImage":null,"mapImage":null,"postcode":null,"platformWarehouse":null,"selfpick":null,"subscribe":null},{"id":61,"name":"天津新燕莎奥莱TOMMY专柜","ename":"天津新燕莎奥莱TOMMY专柜","fullAddress":null,"ename1":"272","ename2":"117.397413,39.164199","province":"天津","city":"请选择市/区-","district":"","address":"环河北路98号一层B4109","extension":"1","phone":"","hours":"周末节假日10：00-21：00  周一-周四10：00-20：00","storeImage":null,"mapImage":null,"postcode":null,"platformWarehouse":null,"selfpick":null,"subscribe":null},{"id":63,"name":"哈尔滨红博世纪广场TOMMY专柜","ename":"哈尔滨红博世纪广场TOMMY专柜","fullAddress":null,"ename1":"289","ename2":"126.702631,45.752928","province":"黑龙江省","city":"哈尔滨市","district":"南岗区","address":"红旗大街301号金座7厅1F","extension":"1","phone":"","hours":"9:30-21:00","storeImage":null,"mapImage":null,"postcode":null,"platformWarehouse":null,"selfpick":null,"subscribe":null},{"id":76,"name":"哈尔滨红博西城红场TOMMY专柜","ename":"哈尔滨红博西城红场TOMMY专柜","fullAddress":null,"ename1":"297","ename2":"116.37319,39.93428","province":"黑龙江省","city":"哈尔滨市","district":"南岗区","address":"哈西大街299号西城红场生活港1F","extension":"1","phone":"","hours":"9:30-21:00","storeImage":null,"mapImage":null,"postcode":null,"platformWarehouse":null,"selfpick":null,"subscribe":null},{"id":62,"name":"哈尔滨远大购物中心TOMMY专柜","ename":"哈尔滨远大购物中心TOMMY专柜","fullAddress":null,"ename1":"298","ename2":"126.649774,45.765963","province":"黑龙江省","city":"哈尔滨市","district":"南岗区","address":"果戈里大街378号远大购物中心2F","extension":"1","phone":"","hours":"9：00-21：30","storeImage":null,"mapImage":null,"postcode":null,"platformWarehouse":null,"selfpick":null,"subscribe":null},{"id":67,"name":"沈阳赛特奥莱TOMMY专柜","ename":"沈阳赛特奥莱TOMMY专柜","fullAddress":null,"ename1":"339","ename2":"123.62664,41.851135","province":"辽宁省","city":"沈阳市","district":"","address":"东陵公园双园路36号沈阳赛特奥莱斯1F","extension":"1","phone":"","hours":"9:00-21:00","storeImage":null,"mapImage":null,"postcode":null,"platformWarehouse":null,"selfpick":null,"subscribe":null},{"id":75,"name":"哈尔滨松雷TOMMY专柜","ename":"哈尔滨松雷TOMMY专柜","fullAddress":null,"ename1":"342","ename2":"126.650278,45.765059","province":"黑龙江省","city":"哈尔滨市","district":"南岗区","address":"东大直街329号松雷商业大厦2F","extension":"1","phone":"","hours":"9：00-21：30","storeImage":null,"mapImage":null,"postcode":null,"platformWarehouse":null,"selfpick":null,"subscribe":null},{"id":77,"name":"长春欧亚商都TOMMY专柜","ename":"长春欧亚商都TOMMY专柜","fullAddress":null,"ename1":"360","ename2":"125.307394,43.876633","province":"辽宁省","city":"请选择市/区-","district":"","address":"朝阳区红旗街欧亚商都2F","extension":"1","phone":"","hours":"9:30-20:30","storeImage":null,"mapImage":null,"postcode":null,"platformWarehouse":null,"selfpick":null,"subscribe":null},{"id":74,"name":"齐齐哈尔百货TOMMY专柜","ename":"齐齐哈尔百货TOMMY专柜","fullAddress":null,"ename1":"367","ename2":"123.962087,47.350981","province":"黑龙江省","city":"齐齐哈尔市","district":"龙沙区","address":"卜奎大街55号齐齐哈尔百货大楼1F","extension":"1","phone":"","hours":"夏季（周一~周四）9:00-20:30；(周五~周日）9:00-21:00       ；冬季（周一~周四）9:00-20:00；(周五~周日）9:00-20:30","storeImage":null,"mapImage":null,"postcode":null,"platformWarehouse":null,"selfpick":null,"subscribe":null},{"id":65,"name":"沈阳卓展TOMMY专柜","ename":"沈阳卓展TOMMY专柜","fullAddress":null,"ename1":"376","ename2":"123.439927,41.815576","province":"辽宁省","city":"沈阳市","district":"沈河区","address":"北京街7-1号卓展购物中心2F","extension":"1","phone":"","hours":"10:00-21:00","storeImage":null,"mapImage":null,"postcode":null,"platformWarehouse":null,"selfpick":null,"subscribe":null},{"id":64,"name":"哈尔滨卓展购物中心TOMMY专柜","ename":"哈尔滨卓展购物中心TOMMY专柜","fullAddress":null,"ename1":"386","ename2":"126.611515,45.764441","province":"黑龙江省","city":"哈尔滨市","district":"道里区","address":"安隆街106号哈尔滨卓展购物中心2F","extension":"1","phone":"","hours":"10:00-21:00","storeImage":null,"mapImage":null,"postcode":null,"platformWarehouse":null,"selfpick":null,"subscribe":null},{"id":169,"name":"德州百货大楼TOMMY专柜","ename":"德州百货大楼TOMMY专柜","fullAddress":null,"ename1":"284","ename2":"116.315721,37.451236","province":"山东省","city":"德州市","district":"德城区","address":"湖滨中大道118号德百大楼2楼","extension":"1","phone":"","hours":"09:30-22:00","storeImage":null,"mapImage":null,"postcode":null,"platformWarehouse":null,"selfpick":null,"subscribe":null},{"id":495,"name":"杭州富阳首创奥莱TOMMY专柜","ename":"杭州富阳首创奥莱TOMMY专柜","fullAddress":null,"ename1":"18","ename2":"120.035159,30.082533","province":"浙江省","city":"杭州市","district":"富阳市","address":"江滨东大道889号杭州首创奥特莱斯F1—C02 TOMMY HILFIGER\r\n","extension":"1","phone":"","hours":"10:00-22:00","storeImage":null,"mapImage":null,"postcode":null,"platformWarehouse":null,"selfpick":null,"subscribe":null},{"id":79,"name":"吉林欧亚商都TOMMY专柜","ename":"吉林欧亚商都TOMMY专柜","fullAddress":null,"ename1":"259","ename2":"126.594574,43.856865","province":"辽宁省","city":"请选择市/区-","district":"","address":"解放东路6号欧亚商都1F","extension":"1","phone":"","hours":"9：10-20:00","storeImage":null,"mapImage":null,"postcode":null,"platformWarehouse":null,"selfpick":null,"subscribe":null},{"id":80,"name":"延吉百利城TOMMY专柜","ename":"延吉百利城TOMMY专柜","fullAddress":null,"ename1":"304","ename2":"129.519686,42.913132","province":"辽宁省","city":"请选择市/区-","district":"","address":"光明街608号延吉百货大楼百利城1F","extension":"1","phone":"","hours":"9：00-20：30","storeImage":null,"mapImage":null,"postcode":null,"platformWarehouse":null,"selfpick":null,"subscribe":null},{"id":496,"name":"上海合生汇TOMMY专柜","ename":"上海合生汇TOMMY专柜","fullAddress":null,"ename1":"19","ename2":"121.525051,31.306016","province":"上海","city":"上海市","district":"杨浦区","address":"黄兴路2228号1楼29A\r\n","extension":"1","phone":"","hours":"10:00-22:00","storeImage":null,"mapImage":null,"postcode":null,"platformWarehouse":null,"selfpick":null,"subscribe":null},{"id":497,"name":"长沙IFSTOMMY JEANS专柜","ename":"长沙IFSTOMMY JEANS专柜","fullAddress":null,"ename1":"20","ename2":"113.007167,28.196651","province":"湖南省","city":"长沙市","district":"芙蓉区","address":"湖南省长沙市解放路270号 3/F IFSTOMMY JEANS专柜\r\n","extension":"1","phone":"","hours":"10:00-22:00","storeImage":null,"mapImage":null,"postcode":null,"platformWarehouse":null,"selfpick":null,"subscribe":null},{"id":498,"name":"上海港汇TOMMY JEANS专柜","ename":"上海港汇TOMMY JEANS专柜","fullAddress":null,"ename1":"21","ename2":"121.443644,31.200982","province":"上海","city":"上海市","district":"徐汇区","address":"虹桥路1号港汇广场3楼325/325A\r\n","extension":"1","phone":"","hours":"10:00-22:00","storeImage":null,"mapImage":null,"postcode":null,"platformWarehouse":"SHSHTGHD","selfpick":true,"subscribe":true},{"id":499,"name":"重庆新光天地TOMMY JEANS专柜","ename":"重庆新光天地TOMMY JEANS专柜","fullAddress":null,"ename1":"22","ename2":"106.528398,29.601013","province":"重庆","city":"重庆市","district":"渝北区","address":"红锦大道89号\r\n","extension":"1","phone":"","hours":"10:00-22:00","storeImage":null,"mapImage":null,"postcode":null,"platformWarehouse":null,"selfpick":null,"subscribe":null},{"id":82,"name":"大连亿合城TOMMY专柜","ename":"大连亿合城TOMMY专柜","fullAddress":null,"ename1":"170","ename2":"121.593711,38.997227","province":"辽宁省","city":"大连市","district":"甘井子区","address":"山东路235号亿合城购物中心1F","extension":"1","phone":"","hours":"9:00-21:30","storeImage":null,"mapImage":null,"postcode":null,"platformWarehouse":null,"selfpick":null,"subscribe":null},{"id":81,"name":"长春欧亚新生活购物广场TOMMY专柜","ename":"长春欧亚新生活购物广场TOMMY专柜","fullAddress":null,"ename1":"201","ename2":"125.31224,43.869804","province":"辽宁省","city":"请选择市/区-","district":"","address":"欧亚新生活1F","extension":"1","phone":"","hours":"9:30--21:00","storeImage":null,"mapImage":null,"postcode":null,"platformWarehouse":null,"selfpick":null,"subscribe":null},{"id":500,"name":"杭州临平银泰城TOMMY专柜","ename":"杭州临平银泰城TOMMY专柜","fullAddress":null,"ename1":"23","ename2":"120.309936,30.410701","province":"浙江省","city":"杭州市","district":"余杭区","address":"杭州市余杭区临平南苑街道世纪大道西1号临平银泰城1F-131\r\n","extension":"1","phone":"","hours":"10:30-21:30","storeImage":null,"mapImage":null,"postcode":null,"platformWarehouse":null,"selfpick":null,"subscribe":null},{"id":501,"name":"贵阳国贸时代TOMMY专柜","ename":"贵阳国贸时代TOMMY专柜","fullAddress":null,"ename1":"24","ename2":"106.630632,26.606254","province":"贵州省","city":"贵阳市","district":"云岩区","address":"贵阳市金阳南路6号世纪金源购物中心国贸购物公园1楼\r\n","extension":"1","phone":"","hours":"10:00-22:00","storeImage":null,"mapImage":null,"postcode":null,"platformWarehouse":null,"selfpick":null,"subscribe":null},{"id":502,"name":"乌鲁木齐缤纷汇TOMMY JEANS专柜","ename":"乌鲁木齐缤纷汇TOMMY JEANS专柜","fullAddress":null,"ename1":"25","ename2":"87.615347,43.810835","province":"新疆维吾尔自治区","city":"乌鲁木齐市","district":"天山区","address":"光明路30号\r\n","extension":"1","phone":"","hours":"10:00-22:00","storeImage":null,"mapImage":null,"postcode":null,"platformWarehouse":null,"selfpick":null,"subscribe":null},{"id":503,"name":"温州银泰TOMMY JEANS专柜","ename":"温州银泰TOMMY JEANS专柜","fullAddress":null,"ename1":"26","ename2":"120.671422,28.012262","province":"浙江省","city":"温州市","district":"鹿城区","address":"大南门银泰百货2F\r\n","extension":"1","phone":"","hours":"10:00-22:00","storeImage":null,"mapImage":null,"postcode":null,"platformWarehouse":null,"selfpick":null,"subscribe":null},{"id":83,"name":"大连百年城TOMMY专柜","ename":"大连百年城TOMMY专柜","fullAddress":null,"ename1":"257","ename2":"121.643384,38.921747","province":"辽宁省","city":"大连市","district":"中山区","address":"解放路19号G层10号1F","extension":"1","phone":"","hours":"9:00-21:00","storeImage":null,"mapImage":null,"postcode":null,"platformWarehouse":null,"selfpick":null,"subscribe":null},{"id":504,"name":"南通万象城TOMMY JEANS专柜","ename":"南通万象城TOMMY JEANS专柜","fullAddress":null,"ename1":"27","ename2":"120.866225,32.059777","province":"江苏省","city":"南通市","district":"港闸区","address":"北大街111号南通万象城1F\r\n","extension":"1","phone":"","hours":"10:00-22:00","storeImage":null,"mapImage":null,"postcode":null,"platformWarehouse":null,"selfpick":null,"subscribe":null},{"id":505,"name":"福州台江万达TOMMY JEANS专柜","ename":"福州台江万达TOMMY JEANS专柜","fullAddress":null,"ename1":"28","ename2":"119.349608,26.05789","province":"福建省","city":"福州市","district":"台江区","address":"鳌江路8号金融街万达广场1楼1015B,1016A,1016B号商铺\r\n","extension":"1","phone":"","hours":"10:00-22:00","storeImage":null,"mapImage":null,"postcode":null,"platformWarehouse":null,"selfpick":null,"subscribe":null},{"id":170,"name":"东营银座TOMMY专柜","ename":"东营银座TOMMY专柜","fullAddress":null,"ename1":"118","ename2":"118.526247,37.469988","province":"山东省","city":"东营市","district":"东营区","address":"西二路468号银座商城2楼","extension":"1","phone":"","hours":"09:00-21:30","storeImage":null,"mapImage":null,"postcode":null,"platformWarehouse":null,"selfpick":null,"subscribe":null},{"id":171,"name":"青岛海信奥运店TOMMY专柜","ename":"青岛海信奥运店TOMMY专柜","fullAddress":null,"ename1":"385","ename2":"120.402772,36.066069","province":"山东省","city":"青岛市","district":"市南区","address":"澳门路117号海信广场B1","extension":"1","phone":"","hours":"09:00-21:00","storeImage":null,"mapImage":null,"postcode":null,"platformWarehouse":null,"selfpick":null,"subscribe":null},{"id":506,"name":"泰安银座TOMMY专柜","ename":"泰安银座TOMMY专柜","fullAddress":null,"ename1":"29","ename2":"117.11971,36.195337","province":"山东省","city":"泰安市","district":"泰山区","address":"东岳大街318号火车站银座商城二楼TOMMY专柜\r\n","extension":"1","phone":"","hours":"10:00-21:00","storeImage":null,"mapImage":null,"postcode":null,"platformWarehouse":null,"selfpick":null,"subscribe":null},{"id":507,"name":"萧山万象汇TOMMY专柜","ename":"萧山万象汇TOMMY专柜","fullAddress":null,"ename1":"30","ename2":"120.276031,30.187311","province":"浙江省","city":"杭州市","district":"萧山区","address":"北干街道金城路927号万象汇购物中心一楼L125\r\n","extension":"1","phone":"","hours":"周一至周四10:00-21:30，周五至周日9:30-22:00","storeImage":null,"mapImage":null,"postcode":null,"platformWarehouse":null,"selfpick":null,"subscribe":null},{"id":88,"name":"洛阳王府井TOMMY专柜","ename":"洛阳王府井TOMMY专柜","fullAddress":null,"ename1":"46","ename2":"112.439553,34.674772","province":"河南省","city":"洛阳市","district":"西工区","address":"中州中路王府井百货3F","extension":"1","phone":"","hours":"9:30-21:00","storeImage":null,"mapImage":null,"postcode":null,"platformWarehouse":null,"selfpick":null,"subscribe":null},{"id":89,"name":"南阳红都时代广场TOMMY专柜","ename":"南阳红都时代广场TOMMY专柜","fullAddress":null,"ename1":"103","ename2":"112.542874,33.00273","province":"河南省","city":"南阳市","district":"宛城区","address":"新华路与人民路交叉口755号红都时代广场1F","extension":"1","phone":"","hours":"9:30-22:00","storeImage":null,"mapImage":null,"postcode":null,"platformWarehouse":null,"selfpick":null,"subscribe":null},{"id":86,"name":"大连百年港湾奥莱TOMMY专柜","ename":"大连百年港湾奥莱TOMMY专柜","fullAddress":null,"ename1":"107","ename2":"121.613902,38.935196","province":"辽宁省","city":"大连市","district":"西岗区","address":"香炉礁物流园区百年港湾奥特莱斯A4区1F","extension":"1","phone":"","hours":"9:00-21:00","storeImage":null,"mapImage":null,"postcode":null,"platformWarehouse":null,"selfpick":null,"subscribe":null},{"id":84,"name":"大连恒隆TOMMY专柜","ename":"大连恒隆TOMMY专柜","fullAddress":null,"ename1":"128","ename2":"121.616574,38.913236","province":"辽宁省","city":"大连市","district":"西岗区","address":"五四路66号恒隆广场商场161A号1F","extension":"1","phone":"","hours":"09:30-21:00","storeImage":null,"mapImage":null,"postcode":null,"platformWarehouse":null,"selfpick":null,"subscribe":null},{"id":87,"name":"丹东汇侨国际广场TOMMY专柜","ename":"丹东汇侨国际广场TOMMY专柜","fullAddress":null,"ename1":"164","ename2":"124.39782,40.129853","province":"辽宁省","city":"丹东市","district":"振兴区","address":"十纬路30号汇桥国际广场2F","extension":"1","phone":"","hours":"9：30-20：30","storeImage":null,"mapImage":null,"postcode":null,"platformWarehouse":null,"selfpick":null,"subscribe":null},{"id":85,"name":"大连安盛购物广场TOMMY专柜","ename":"大连安盛购物广场TOMMY专柜","fullAddress":null,"ename1":"251","ename2":"121.785372,39.05555","province":"辽宁省","city":"大连市","district":"开发区","address":"金马路189号安盛购物广场1F","extension":"1","phone":"","hours":"10:00-22:00","storeImage":null,"mapImage":null,"postcode":null,"platformWarehouse":null,"selfpick":null,"subscribe":null},{"id":123,"name":"杭州万象城TOMMY专柜","ename":"杭州万象城TOMMY专柜","fullAddress":null,"ename1":"316","ename2":"120.222484,30.257529","province":"浙江省","city":"杭州市","district":"江干区","address":"富春路701号L379TOMMY专柜","extension":"1","phone":"","hours":"10:00-21:30（周末延后30分钟）","storeImage":null,"mapImage":null,"postcode":null,"platformWarehouse":null,"selfpick":null,"subscribe":null},{"id":94,"name":"郑州二七万达广场TOMMY专柜","ename":"郑州二七万达广场TOMMY专柜","fullAddress":null,"ename1":"349","ename2":"113.649874,34.725551","province":"河南省","city":"郑州市","district":"二七区","address":"大学南路8号二七万达广场1006铺1F","extension":"1","phone":"","hours":"9:30-21:30","storeImage":null,"mapImage":null,"postcode":null,"platformWarehouse":null,"selfpick":null,"subscribe":null},{"id":115,"name":"温州银泰TOMMY专柜","ename":"温州银泰TOMMY专柜","fullAddress":null,"ename1":"350","ename2":"120.671282,28.012082","province":"浙江省","city":"温州市","district":"鹿城区","address":"大南门银泰百货1F","extension":"1","phone":"","hours":"10:00-22:00","storeImage":null,"mapImage":null,"postcode":null,"platformWarehouse":null,"selfpick":null,"subscribe":null},{"id":97,"name":"郑州杉杉奥莱TOMMY专柜","ename":"郑州杉杉奥莱TOMMY专柜","fullAddress":null,"ename1":"351","ename2":"114.02557,34.810784","province":"河南省","city":"郑州市","district":"中牟县","address":"大孟镇杉杉奥特莱斯1F","extension":"1","phone":"","hours":"10:00-21:30","storeImage":null,"mapImage":null,"postcode":null,"platformWarehouse":null,"selfpick":null,"subscribe":null},{"id":114,"name":"温州时代TOMMY专柜","ename":"温州时代TOMMY专柜","fullAddress":null,"ename1":"359","ename2":"120.69107,28.004112","province":"浙江省","city":"温州市","district":"鹿城区","address":"车站大道时代广场1F","extension":"1","phone":"","hours":"(周一~周四）10:00-21:30；（周五~周日）9:30-22:00","storeImage":null,"mapImage":null,"postcode":null,"platformWarehouse":null,"selfpick":null,"subscribe":null},{"id":96,"name":"郑州丹尼斯大卫城TOMMY专柜","ename":"郑州丹尼斯大卫城TOMMY专柜","fullAddress":null,"ename1":"152","ename2":"113.681912,34.762993","province":"河南省","city":"郑州市","district":"二七区","address":"太康路49号丹尼斯百货大卫城2F","extension":"1","phone":"","hours":"10:00-21:30","storeImage":null,"mapImage":null,"postcode":null,"platformWarehouse":null,"selfpick":null,"subscribe":null},{"id":93,"name":"郑州丹尼斯TOMMY专柜","ename":"郑州丹尼斯TOMMY专柜","fullAddress":null,"ename1":"182","ename2":"113.68144,34.7631","province":"河南省","city":"郑州市","district":"金水区","address":"人民路2号丹尼斯百货商场A2103号 2F","extension":"1","phone":"","hours":"10:00-21:30;（周六&周日）10:00-22:00","storeImage":null,"mapImage":null,"postcode":null,"platformWarehouse":null,"selfpick":null,"subscribe":null},{"id":111,"name":"保定保百TOMMY专柜","ename":"保定保百TOMMY专柜","fullAddress":null,"ename1":"363","ename2":"115.473928,38.899927","province":"河北省","city":"保定市","district":"高开区","address":"朝阳北大街916号保百购物广场1F","extension":"1","phone":"","hours":"10:00-22:00","storeImage":null,"mapImage":null,"postcode":null,"platformWarehouse":null,"selfpick":null,"subscribe":null},{"id":100,"name":"包头苏宁TOMMY专柜","ename":"包头苏宁TOMMY专柜","fullAddress":null,"ename1":"190","ename2":"109.811606,40.66484","province":"内蒙古自治区","city":"请选择市/区-","district":"","address":"青山钢铁大街苏宁广场1F","extension":"1","phone":"","hours":"10:00-22:00","storeImage":null,"mapImage":null,"postcode":null,"platformWarehouse":null,"selfpick":null,"subscribe":null},{"id":120,"name":"乐清银泰TOMMY专柜","ename":"乐清银泰TOMMY专柜","fullAddress":null,"ename1":"391","ename2":"120.988144,28.113998","province":"浙江省","city":"温州市","district":"乐清市","address":"伯乐东路999号南虹广场银泰百货一楼TOMMY专柜\r\n","extension":"1","phone":"","hours":"10:00-21:30","storeImage":null,"mapImage":null,"postcode":null,"platformWarehouse":null,"selfpick":null,"subscribe":null},{"id":105,"name":"太原茂业TOMMY专柜","ename":"太原茂业TOMMY专柜","fullAddress":null,"ename1":"192","ename2":"112.571687,37.832167","province":"山西省","city":"太原市","district":"小店区","address":"亲贤街茂业天地1F","extension":"1","phone":"","hours":"9:30-22:00","storeImage":null,"mapImage":null,"postcode":null,"platformWarehouse":null,"selfpick":null,"subscribe":null},{"id":104,"name":"太原王府井百货TOMMY专柜","ename":"太原王府井百货TOMMY专柜","fullAddress":null,"ename1":"193","ename2":"112.565728,37.830264","province":"山西省","city":"太原市","district":"小店区","address":"亲贤北街99号2F","extension":"1","phone":"","hours":"10:00-22：00","storeImage":null,"mapImage":null,"postcode":null,"platformWarehouse":null,"selfpick":null,"subscribe":null},{"id":121,"name":"温州银泰城奥莱TOMMY专柜","ename":"温州银泰城奥莱TOMMY专柜","fullAddress":null,"ename1":"202","ename2":"120.609968,27.968828","province":"浙江省","city":"温州市","district":"瓯海区","address":"瓯海大道1299号银泰城奥特莱斯1F","extension":"1","phone":"","hours":"10:00-21:30","storeImage":null,"mapImage":null,"postcode":null,"platformWarehouse":null,"selfpick":null,"subscribe":null},{"id":103,"name":"大同万达TOMMY专柜","ename":"大同万达TOMMY专柜","fullAddress":null,"ename1":"212","ename2":"113.346204,40.088731","province":"山西省","city":"大同市","district":"南郊区","address":"南环东路与永和路交汇大同万达广场1F","extension":"1","phone":"","hours":"（周一~周四）10:00-21:00；（周五~周日）9:30-22:00","storeImage":null,"mapImage":null,"postcode":null,"platformWarehouse":null,"selfpick":null,"subscribe":null},{"id":92,"name":"洛阳王府井二店TOMMY专柜","ename":"洛阳王府井二店TOMMY专柜","fullAddress":null,"ename1":"213","ename2":"112.41482,34.650561","province":"河南省","city":"洛阳市","district":"涧西区","address":"南昌路王府井购物中心1F","extension":"1","phone":"","hours":"9:00-21:00","storeImage":null,"mapImage":null,"postcode":null,"platformWarehouse":null,"selfpick":null,"subscribe":null},{"id":95,"name":"郑州万象城TOMMY专柜","ename":"郑州万象城TOMMY专柜","fullAddress":null,"ename1":"217","ename2":"113.667719,34.76114","province":"河南省","city":"郑州市","district":"二七区","address":"民主路10号华润万象城购物中心229号1F","extension":"1","phone":"","hours":"10:00-22:00","storeImage":null,"mapImage":null,"postcode":null,"platformWarehouse":null,"selfpick":null,"subscribe":null},{"id":102,"name":"太原天美杉杉奥莱TOMMY专柜","ename":"太原天美杉杉奥莱TOMMY专柜","fullAddress":null,"ename1":"224","ename2":"112.726874,37.724003","province":"山西省","city":"太原市","district":"","address":"龙湖街1055号天美杉杉奥特莱斯广场1F","extension":"1","phone":"","hours":"9:00-20:00","storeImage":null,"mapImage":null,"postcode":null,"platformWarehouse":null,"selfpick":null,"subscribe":null},{"id":119,"name":"温州龙港TOMMY专柜","ename":"温州龙港TOMMY专柜","fullAddress":null,"ename1":"225","ename2":"120.558672,27.588649","province":"浙江省","city":"温州市","district":"苍南县","address":"龙港购物中心218-220号","extension":"1","phone":"","hours":"10:00-22:00","storeImage":null,"mapImage":null,"postcode":null,"platformWarehouse":null,"selfpick":null,"subscribe":null},{"id":91,"name":"平顶山丹尼斯TOMMY专柜","ename":"平顶山丹尼斯TOMMY专柜","fullAddress":null,"ename1":"242","ename2":"113.31521,33.737737","province":"河南省","city":"平顶山市","district":"卫东区","address":"开源路与曙光街交叉口丹尼斯百货1F","extension":"1","phone":"","hours":"9:30-21:30","storeImage":null,"mapImage":null,"postcode":null,"platformWarehouse":null,"selfpick":null,"subscribe":null},{"id":108,"name":"天津爱琴海TOMMY专柜","ename":"天津爱琴海TOMMY专柜","fullAddress":null,"ename1":"246","ename2":"117.254399,39.130252","province":"河北省","city":"请选择市/区-","district":"","address":"津滨大道160号爱琴海购物公园1F","extension":"1","phone":"","hours":"(周一~周四）10:00-21:00；（周五~周日）9:30-22:00","storeImage":null,"mapImage":null,"postcode":null,"platformWarehouse":null,"selfpick":null,"subscribe":null},{"id":109,"name":"天津海信TOMMY专柜（NEW)","ename":"天津海信TOMMY专柜（NEW)","fullAddress":null,"ename1":"260","ename2":"117.224479,39.123153","province":"河北省","city":"请选择市/区-","district":"","address":"解放北路188号天津海信广场3F","extension":"1","phone":"","hours":"10:00-22:00","storeImage":null,"mapImage":null,"postcode":null,"platformWarehouse":null,"selfpick":null,"subscribe":null},{"id":101,"name":"呼和浩特维多利TOMMY专柜","ename":"呼和浩特维多利TOMMY专柜","fullAddress":null,"ename1":"49","ename2":"111.675867,40.822706","province":"内蒙古自治区","city":"呼和浩特市","district":"新城区","address":"中山西路维多利购物中心1F","extension":"1","phone":"","hours":"10:00-21:00","storeImage":null,"mapImage":null,"postcode":null,"platformWarehouse":null,"selfpick":null,"subscribe":null},{"id":112,"name":"石家庄北国商城TOMMY专柜","ename":"石家庄北国商城TOMMY专柜","fullAddress":null,"ename1":"56","ename2":"114.51668,38.048476","province":"河北省","city":"石家庄市","district":"桥东区","address":"中山东路188号北国商城1F","extension":"1","phone":"","hours":"9:30-21:00","storeImage":null,"mapImage":null,"postcode":null,"platformWarehouse":null,"selfpick":null,"subscribe":null},{"id":107,"name":"北京首创奥莱TOMMY专柜","ename":"北京首创奥莱TOMMY专柜","fullAddress":null,"ename1":"68","ename2":"116.194975,39.768913","province":"北京","city":"北京市","district":"房山区","address":"长阳镇首创奥特莱斯1F","extension":"1","phone":"","hours":"9:00-20:00","storeImage":null,"mapImage":null,"postcode":null,"platformWarehouse":null,"selfpick":null,"subscribe":null},{"id":127,"name":"杭州银泰西湖店TOMMY专柜","ename":"杭州银泰西湖店TOMMY专柜","fullAddress":null,"ename1":"93","ename2":"120.172145,30.249193","province":"浙江省","city":"杭州市","district":"上城区","address":"延安南路98号西湖银泰百货1楼","extension":"1","phone":"","hours":"10:00-21:30（周末延后30分钟）","storeImage":null,"mapImage":null,"postcode":null,"platformWarehouse":null,"selfpick":null,"subscribe":null},{"id":124,"name":"杭州银泰武林店TOMMY专柜","ename":"杭州银泰武林店TOMMY专柜","fullAddress":null,"ename1":"95","ename2":"120.170556,30.27408","province":"浙江省","city":"杭州市","district":"下城区","address":"延安路530号2F","extension":"1","phone":"","hours":"10:00-21:30（周末延后30分钟）","storeImage":null,"mapImage":null,"postcode":null,"platformWarehouse":null,"selfpick":null,"subscribe":null},{"id":125,"name":"杭州湖滨银泰TOMMY专柜","ename":"杭州湖滨银泰TOMMY专柜","fullAddress":null,"ename1":"96","ename2":"120.171355,30.258609","province":"浙江省","city":"杭州市","district":"上城区","address":"延安路258号B座一楼B126","extension":"1","phone":"","hours":"10:00-22:00（周末延后30分钟）","storeImage":null,"mapImage":null,"postcode":null,"platformWarehouse":null,"selfpick":null,"subscribe":null},{"id":110,"name":"天津恒隆TOMMY专柜","ename":"天津恒隆TOMMY专柜","fullAddress":null,"ename1":"100","ename2":"117.204686,39.133975","province":"河北省","city":"请选择市/区-","district":"","address":"兴安路166号恒隆广场1F","extension":"1","phone":"","hours":"10:00-21:30;（周五&周六）10:00-22:00","storeImage":null,"mapImage":null,"postcode":null,"platformWarehouse":null,"selfpick":null,"subscribe":null},{"id":113,"name":"唐山万达TOMMY专柜","ename":"唐山万达TOMMY专柜","fullAddress":null,"ename1":"104","ename2":"118.193452,39.626791","province":"河北省","city":"唐山市","district":"路南区","address":"新华东道100号万达广场1F","extension":"1","phone":"","hours":"9:30-21:30","storeImage":null,"mapImage":null,"postcode":null,"platformWarehouse":null,"selfpick":null,"subscribe":null},{"id":122,"name":"杭州大厦TOMMY专柜","ename":"杭州大厦TOMMY专柜","fullAddress":null,"ename1":"125","ename2":"120.168013,30.277929","province":"浙江省","city":"杭州市","district":"下城区","address":"武林广场1号杭州大厦购物中心坤和C座2楼CZ203铺","extension":"1","phone":"","hours":"10:00-22:00","storeImage":null,"mapImage":null,"postcode":null,"platformWarehouse":null,"selfpick":null,"subscribe":null},{"id":128,"name":"杭州西溪印象城TOMMY专柜","ename":"杭州西溪印象城TOMMY专柜","fullAddress":null,"ename1":"130","ename2":"120.056736,30.253191","province":"浙江省","city":"杭州市","district":"余杭区","address":"五常大道1号西溪印象城1楼","extension":"1","phone":"","hours":"10:00-22:00（周末延后30分钟）","storeImage":null,"mapImage":null,"postcode":null,"platformWarehouse":null,"selfpick":null,"subscribe":null},{"id":116,"name":"温州万象城TOMMY专柜","ename":"温州万象城TOMMY专柜","fullAddress":null,"ename1":"135","ename2":"120.691976,27.959157","province":"浙江省","city":"温州市","district":"瓯海区","address":"温瑞大道999号万象城1F","extension":"1","phone":"","hours":"10:00-22:00","storeImage":null,"mapImage":null,"postcode":null,"platformWarehouse":null,"selfpick":null,"subscribe":null},{"id":98,"name":"呼和浩特维多利广场TOMMY专柜","ename":"呼和浩特维多利广场TOMMY专柜","fullAddress":null,"ename1":"136","ename2":"111.703653,40.8339","province":"内蒙古自治区","city":"请选择市/区-","district":"","address":"维多利国际广场B座1F","extension":"1","phone":"","hours":"10:00-21:00","storeImage":null,"mapImage":null,"postcode":null,"platformWarehouse":null,"selfpick":null,"subscribe":null},{"id":99,"name":"呼和浩特万达TOMMY专柜","ename":"呼和浩特万达TOMMY专柜","fullAddress":null,"ename1":"139","ename2":"111.742481,40.840582","province":"内蒙古自治区","city":"请选择市/区-","district":"","address":"万达广场步行街1F","extension":"1","phone":"","hours":"9:00-20:00","storeImage":null,"mapImage":null,"postcode":null,"platformWarehouse":null,"selfpick":null,"subscribe":null},{"id":160,"name":"丽水万地TOMMY专柜","ename":"丽水万地TOMMY专柜","fullAddress":null,"ename1":"279","ename2":"119.931091,28.468054","province":"浙江省","city":"丽水市","district":"莲都区","address":"花园路16号万地广场一层","extension":"1","phone":"","hours":"9:30-21:30（周末延后30分钟）","storeImage":null,"mapImage":null,"postcode":null,"platformWarehouse":null,"selfpick":null,"subscribe":null},{"id":139,"name":"义乌银泰TOMMY专柜","ename":"义乌银泰TOMMY专柜","fullAddress":null,"ename1":"311","ename2":"120.081168,29.313762","province":"浙江省","city":"请选择市/区-","district":"","address":"工人西路15号义乌银泰一楼","extension":"1","phone":"","hours":"10:00-21:30（周末延后30分钟）","storeImage":null,"mapImage":null,"postcode":null,"platformWarehouse":null,"selfpick":null,"subscribe":null},{"id":129,"name":"杭州城西银泰TOMMY专柜","ename":"杭州城西银泰TOMMY专柜","fullAddress":null,"ename1":"331","ename2":"101.727603,36.631636","province":"浙江省","city":"杭州市","district":"拱墅区","address":"丰潭路380号城西银泰购物中心1F019","extension":"1","phone":"","hours":"10:00-22:00","storeImage":null,"mapImage":null,"postcode":null,"platformWarehouse":null,"selfpick":null,"subscribe":null},{"id":155,"name":"宁海西子国际TOMMY专柜","ename":"宁海西子国际TOMMY专柜","fullAddress":null,"ename1":"148","ename2":"121.449617,29.309278","province":"浙江省","city":"宁波市","district":"宁海县","address":"桃源中路168号西子国际广场1F-19号","extension":"1","phone":"","hours":"10:00-22:00","storeImage":null,"mapImage":null,"postcode":null,"platformWarehouse":null,"selfpick":null,"subscribe":null},{"id":150,"name":"鄞州万达广场TOMMY专柜","ename":"鄞州万达广场TOMMY专柜","fullAddress":null,"ename1":"155","ename2":"121.552328,29.83222","province":"浙江省","city":"宁波市","district":"鄞州区","address":"四明中路万达广场内一楼1B-28、1B-29号","extension":"1","phone":"","hours":"10:00-22:00","storeImage":null,"mapImage":null,"postcode":null,"platformWarehouse":null,"selfpick":null,"subscribe":null},{"id":156,"name":"台州耀达TOMMY专柜","ename":"台州耀达TOMMY专柜","fullAddress":null,"ename1":"160","ename2":"121.436878,28.657537","province":"浙江省","city":"台州市","district":"椒江区","address":"市府大道289号耀达百货一楼","extension":"1","phone":"","hours":"10:00-22:00","storeImage":null,"mapImage":null,"postcode":null,"platformWarehouse":null,"selfpick":null,"subscribe":null},{"id":145,"name":"柯桥银泰TOMMY专柜","ename":"柯桥银泰TOMMY专柜","fullAddress":null,"ename1":"345","ename2":"120.498859,30.092963","province":"浙江省","city":"绍兴市","district":"","address":"笛扬路与兴越路交接口银泰百货一楼","extension":"1","phone":"","hours":"10：-22:00（周末延后30分钟）","storeImage":null,"mapImage":null,"postcode":null,"platformWarehouse":null,"selfpick":null,"subscribe":null},{"id":140,"name":"东阳一百TOMMY专柜","ename":"东阳一百TOMMY专柜","fullAddress":null,"ename1":"183","ename2":"120.245809,29.275102","province":"浙江省","city":"请选择市/区-","district":"","address":"人民路106号第一百货一楼","extension":"1","phone":"","hours":"10:00-21:30（周末延后30分钟）","storeImage":null,"mapImage":null,"postcode":null,"platformWarehouse":null,"selfpick":null,"subscribe":null},{"id":134,"name":"杭州西溪银泰城TOMMY专柜","ename":"杭州西溪银泰城TOMMY专柜","fullAddress":null,"ename1":"356","ename2":"120.081761,30.299051","province":"浙江省","city":"杭州市","district":"西湖区","address":"崇仁路余杭塘路交界西溪银泰城1F028-029","extension":"1","phone":"","hours":"10:00-22:00","storeImage":null,"mapImage":null,"postcode":null,"platformWarehouse":null,"selfpick":null,"subscribe":null},{"id":164,"name":"济南恒隆TOMMY专柜","ename":"济南恒隆TOMMY专柜","fullAddress":null,"ename1":"186","ename2":"117.029969,36.670755","province":"山东省","city":"济南市","district":"历下区","address":"泉城路188号恒隆广场西一楼176号","extension":"1","phone":"","hours":"周一至周四、周日（9:00-21:30；周五、周六（9:00-21:45）","storeImage":null,"mapImage":null,"postcode":null,"platformWarehouse":null,"selfpick":null,"subscribe":null},{"id":163,"name":"舟山定海凯虹TOMMY专柜","ename":"舟山定海凯虹TOMMY专柜","fullAddress":null,"ename1":"357","ename2":"122.130699,30.024424","province":"浙江省","city":"舟山市","district":"定海区","address":"城东街道东瀛路199号一楼","extension":"1","phone":"","hours":"周一至周四、周日（9:00-21:30；周五、周六（9:00-21:45）","storeImage":null,"mapImage":null,"postcode":null,"platformWarehouse":null,"selfpick":null,"subscribe":null},{"id":131,"name":"杭州滨江宝龙TOMMY专柜","ename":"杭州滨江宝龙TOMMY专柜","fullAddress":null,"ename1":"368","ename2":"120.17396,30.194482","province":"浙江省","city":"杭州市","district":"滨江区","address":"滨盛路3867号宝龙城1F035 ","extension":"1","phone":"","hours":"10:00-21:30（周末延后30分钟）","storeImage":null,"mapImage":null,"postcode":null,"platformWarehouse":null,"selfpick":null,"subscribe":null},{"id":143,"name":"上虞大通TOMMY专柜","ename":"上虞大通TOMMY专柜","fullAddress":null,"ename1":"380","ename2":"120.879054,30.039381","province":"浙江省","city":"绍兴市","district":"","address":"百官街道市民大道689号绍兴大通购物中心一楼男装","extension":"1","phone":"","hours":"8:45-21:15（周末延后15分钟）","storeImage":null,"mapImage":null,"postcode":null,"platformWarehouse":null,"selfpick":null,"subscribe":null},{"id":142,"name":"上虞万和城TOMMY专柜","ename":"上虞万和城TOMMY专柜","fullAddress":null,"ename1":"381","ename2":"120.882417,30.038115","province":"浙江省","city":"绍兴市","district":"","address":"百官街道市民大道688号上百万和城一楼男装","extension":"1","phone":"","hours":"9:30-21:30（周末延后30分钟）","storeImage":null,"mapImage":null,"postcode":null,"platformWarehouse":null,"selfpick":null,"subscribe":null},{"id":153,"name":"宁波杉井奥莱TOMMY专柜","ename":"宁波杉井奥莱TOMMY专柜","fullAddress":null,"ename1":"187","ename2":"121.456134,29.864724","province":"浙江省","city":"宁波市","district":"鄞州区","address":"秋实路555号杉井奥特莱斯广场16300+16400铺","extension":"1","phone":"","hours":"10:00-22:00","storeImage":null,"mapImage":null,"postcode":null,"platformWarehouse":null,"selfpick":null,"subscribe":null},{"id":149,"name":"慈溪银泰城TOMMY专柜","ename":"慈溪银泰城TOMMY专柜","fullAddress":null,"ename1":"189","ename2":"121.255104,30.175733","province":"浙江省","city":"宁波市","district":"慈溪市","address":"青少年宫南路99号一楼","extension":"1","phone":"","hours":"10:00-21:30（周末延后30分钟）","storeImage":null,"mapImage":null,"postcode":null,"platformWarehouse":null,"selfpick":null,"subscribe":null},{"id":154,"name":"宁波印象城TOMMY专柜","ename":"宁波印象城TOMMY专柜","fullAddress":null,"ename1":"194","ename2":"121.572858,29.838817","province":"浙江省","city":"宁波市","district":"鄞州区","address":"钱湖北路288号印象城一楼103铺","extension":"1","phone":"","hours":"10:00-22:00","storeImage":null,"mapImage":null,"postcode":null,"platformWarehouse":null,"selfpick":null,"subscribe":null},{"id":147,"name":"杭州下沙奥特莱斯TOMMY专柜","ename":"杭州下沙奥特莱斯TOMMY专柜","fullAddress":null,"ename1":"197","ename2":"120.390499,30.350948","province":"浙江省","city":"请选择市/区-","district":"","address":"启潮路199号百联奥特莱斯广场A165-166号","extension":"1","phone":"","hours":"9:30-22:00","storeImage":null,"mapImage":null,"postcode":null,"platformWarehouse":null,"selfpick":null,"subscribe":null},{"id":166,"name":"济南百联奥莱TOMMY专柜","ename":"济南百联奥莱TOMMY专柜","fullAddress":null,"ename1":"218","ename2":"116.925215,36.721903","province":"山东省","city":"济南市","district":"槐荫区","address":"美里路555号海那城百联奥特莱斯B128号","extension":"1","phone":"","hours":"09:30-21:30","storeImage":null,"mapImage":null,"postcode":null,"platformWarehouse":null,"selfpick":null,"subscribe":null},{"id":136,"name":"萧山国际机场TOMMY专柜","ename":"萧山国际机场TOMMY专柜","fullAddress":null,"ename1":"37","ename2":"120.442764,30.246207","province":"浙江省","city":"杭州市","district":"萧山区","address":"萧山国际机场A1航站楼CF65国内出发","extension":"1","phone":"","hours":"9:30-21:30（周末延后30分钟）","storeImage":null,"mapImage":null,"postcode":null,"platformWarehouse":null,"selfpick":null,"subscribe":null},{"id":135,"name":"萧山银隆百货TOMMY专柜","ename":"萧山银隆百货TOMMY专柜","fullAddress":null,"ename1":"38","ename2":"120.274537,30.176799","province":"浙江省","city":"杭州市","district":"萧山区","address":"市心中路288号汇德隆银隆百货B座1楼","extension":"1","phone":"","hours":"10:00-22:00","storeImage":null,"mapImage":null,"postcode":null,"platformWarehouse":null,"selfpick":null,"subscribe":null},{"id":158,"name":"台州银泰城TOMMY专柜","ename":"台州银泰城TOMMY专柜","fullAddress":null,"ename1":"48","ename2":"121.405262,28.627745","province":"浙江省","city":"台州市","district":"椒江区","address":"中心大道3899号2号门1030","extension":"1","phone":"","hours":"10:00-22:00","storeImage":null,"mapImage":null,"postcode":null,"platformWarehouse":null,"selfpick":null,"subscribe":null},{"id":141,"name":"嘉兴八佰伴TOMMY专柜","ename":"嘉兴八佰伴TOMMY专柜","fullAddress":null,"ename1":"55","ename2":"120.739566,30.764734","province":"浙江省","city":"嘉兴市","district":"南湖区","address":"中山东路与越秀路交叉口（越秀南路968号）一楼","extension":"1","phone":"","hours":"9:30-21:30（周末延后30分钟）","storeImage":null,"mapImage":null,"postcode":null,"platformWarehouse":null,"selfpick":null,"subscribe":null},{"id":159,"name":"丽水百大TOMMY专柜","ename":"丽水百大TOMMY专柜","fullAddress":null,"ename1":"54","ename2":"119.920206,28.456384","province":"浙江省","city":"丽水市","district":"莲都区","address":"中山街498号一楼","extension":"1","phone":"0578-2223899","hours":"10:00-22:00","storeImage":null,"mapImage":null,"postcode":null,"platformWarehouse":null,"selfpick":null,"subscribe":null},{"id":151,"name":"宁波天一国购TOMMY专柜","ename":"宁波天一国购TOMMY专柜","fullAddress":null,"ename1":"57","ename2":"121.560668,29.877519","province":"浙江省","city":"宁波市","district":"海曙区","address":"中山东路166号国际购物中心一楼","extension":"1","phone":"","hours":"10:00-22:00","storeImage":null,"mapImage":null,"postcode":null,"platformWarehouse":null,"selfpick":null,"subscribe":null},{"id":157,"name":"台州奥莱TOMMY专柜","ename":"台州奥莱TOMMY专柜","fullAddress":null,"ename1":"80","ename2":"121.273742,28.562266","province":"浙江省","city":"台州市","district":"黄岩区","address":"院桥兴华路211号b124号14幢","extension":"1","phone":"","hours":"10:00-22:00","storeImage":null,"mapImage":null,"postcode":null,"platformWarehouse":null,"selfpick":null,"subscribe":null},{"id":138,"name":"金华第一百货TOMMY专柜","ename":"金华第一百货TOMMY专柜","fullAddress":null,"ename1":"116","ename2":"119.660541,29.108276","province":"浙江省","city":"金华市","district":"婺城区","address":"西市街159号第一百货1楼","extension":"1","phone":"","hours":"9:30-21:00（周末延后30分钟）","storeImage":null,"mapImage":null,"postcode":null,"platformWarehouse":null,"selfpick":null,"subscribe":null},{"id":165,"name":"济南银座商城TOMMY专柜","ename":"济南银座商城TOMMY专柜","fullAddress":null,"ename1":"222","ename2":"117.037462,36.665629","province":"山东省","city":"济南市","district":"历下区","address":"泺源大街66号银座商城三期2楼","extension":"1","phone":"","hours":"10:00-22:00","storeImage":null,"mapImage":null,"postcode":null,"platformWarehouse":null,"selfpick":null,"subscribe":null},{"id":133,"name":"杭州远洋乐堤港TOMMY专柜","ename":"杭州远洋乐堤港TOMMY专柜","fullAddress":null,"ename1":"232","ename2":"120.148816,30.311813","province":"浙江省","city":"杭州市","district":"拱墅区","address":"丽水路58号远洋乐堤港1F137","extension":"1","phone":"","hours":"9:30-22:00","storeImage":null,"mapImage":null,"postcode":null,"platformWarehouse":null,"selfpick":null,"subscribe":null},{"id":152,"name":"余姚万达TOMMY专柜","ename":"余姚万达TOMMY专柜","fullAddress":null,"ename1":"236","ename2":"121.138323,30.033554","province":"浙江省","city":"宁波市","district":"余姚市","address":"兰江街道四明西路855号万达广场一楼","extension":"1","phone":"","hours":"10:00-22:00","storeImage":null,"mapImage":null,"postcode":null,"platformWarehouse":null,"selfpick":null,"subscribe":null},{"id":130,"name":"杭州501城市广场TOMMY专柜","ename":"杭州501城市广场TOMMY专柜","fullAddress":null,"ename1":"244","ename2":"120.210224,30.265556","province":"浙江省","city":"杭州市","district":"江干区","address":"景昙路9号杭州大厦501城市广场一楼","extension":"1","phone":"","hours":"10:00-22:00","storeImage":null,"mapImage":null,"postcode":null,"platformWarehouse":null,"selfpick":null,"subscribe":null},{"id":132,"name":"杭州龙湖天街TOMMY专柜","ename":"杭州龙湖天街TOMMY专柜","fullAddress":null,"ename1":"250","ename2":"116.759347,23.408849","province":"浙江省","city":"杭州市","district":"江干区","address":"金沙大道560号龙湖金沙天街一楼1F007 ","extension":"1","phone":"","hours":"9:30-22:00（周末延后30分钟）","storeImage":null,"mapImage":null,"postcode":null,"platformWarehouse":null,"selfpick":null,"subscribe":null},{"id":144,"name":"绍兴银泰城TOMMY专柜","ename":"绍兴银泰城TOMMY专柜","fullAddress":null,"ename1":"256","ename2":"120.58619,29.990087","province":"浙江省","city":"绍兴市","district":"越城区","address":"解放路777号金帝银泰城1F034 ","extension":"1","phone":"","hours":"8:45-21:15（周末延后15分钟）","storeImage":null,"mapImage":null,"postcode":null,"platformWarehouse":null,"selfpick":null,"subscribe":null},{"id":148,"name":"杭州砂之船奥莱TOMMY专柜","ename":"杭州砂之船奥莱TOMMY专柜","fullAddress":null,"ename1":"258","ename2":"120.218854,30.250986","province":"浙江省","city":"杭州市","district":"江干区","address":"解放东路8号砂之船奥特莱斯广场地下一层人马街025-027号","extension":"1","phone":"","hours":"10:00-21:30","storeImage":null,"mapImage":null,"postcode":null,"platformWarehouse":null,"selfpick":null,"subscribe":null},{"id":180,"name":"徐州苏宁TOMMY专柜","ename":"徐州苏宁TOMMY专柜","fullAddress":null,"ename1":"273","ename2":"117.195076,34.271293","province":"江苏省","city":"徐州市","district":"鼓楼区","address":"淮海东路29号苏宁广场2楼","extension":"1","phone":"","hours":"10:00-22:00","storeImage":null,"mapImage":null,"postcode":null,"platformWarehouse":null,"selfpick":null,"subscribe":null},{"id":188,"name":"业佳南通文峰TOMMY专柜","ename":"业佳南通文峰TOMMY专柜","fullAddress":null,"ename1":"286","ename2":"120.890465,32.001724","province":"江苏省","city":"南通市","district":"崇川区","address":"虹桥路1号文峰城市广场1楼","extension":"1","phone":"","hours":"10:00-22:00","storeImage":null,"mapImage":null,"postcode":null,"platformWarehouse":null,"selfpick":null,"subscribe":null},{"id":210,"name":"成都苏宁奥莱TOMMY专柜","ename":"成都苏宁奥莱TOMMY专柜","fullAddress":null,"ename1":"146","ename2":"104.073013,30.608045","province":"四川省","city":"成都市","district":"","address":"天府大道北段8号苏宁奥莱1楼126号","extension":"1","phone":"","hours":"10:00-22:00","storeImage":null,"mapImage":null,"postcode":null,"platformWarehouse":null,"selfpick":null,"subscribe":null},{"id":197,"name":"张家港曼巴特TOMMY专柜","ename":"张家港曼巴特TOMMY专柜","fullAddress":null,"ename1":"291","ename2":"120.553888,31.866105","province":"江苏省","city":"请选择市/区-","district":"","address":"河西路88号曼巴特一楼","extension":"1","phone":"","hours":"9:30-21:30（周末延后30分钟）","storeImage":null,"mapImage":null,"postcode":null,"platformWarehouse":null,"selfpick":null,"subscribe":null},{"id":183,"name":"苏州美罗TOMMY专柜","ename":"苏州美罗TOMMY专柜","fullAddress":null,"ename1":"305","ename2":"120.628528,31.316293","province":"江苏省","city":"苏州市","district":"平江区","address":"观前街245号美罗商城东座2楼","extension":"1","phone":"","hours":"周一到周四9.30到21点闭；周五六日9.30到21.30","storeImage":null,"mapImage":null,"postcode":null,"platformWarehouse":null,"selfpick":null,"subscribe":null},{"id":179,"name":"南通印象城TOMMY专柜","ename":"南通印象城TOMMY专柜","fullAddress":null,"ename1":"312","ename2":"120.894216,31.993269","province":"江苏省","city":"南通市","district":"崇川区","address":"工农南路155号印象城一楼","extension":"1","phone":"","hours":"09:00-22:00","storeImage":null,"mapImage":null,"postcode":null,"platformWarehouse":null,"selfpick":null,"subscribe":null},{"id":209,"name":"成都大悦城TOMMY专柜","ename":"成都大悦城TOMMY专柜","fullAddress":null,"ename1":"348","ename2":"104.01012,30.636982","province":"四川省","city":"成都市","district":"武侯区","address":"大悦路518号大悦城1F039","extension":"1","phone":"","hours":"平时：10:00-22:00 周五周六：10:00-22:30","storeImage":null,"mapImage":null,"postcode":null,"platformWarehouse":null,"selfpick":null,"subscribe":null},{"id":198,"name":"三亚夏日百货TOMMY专柜","ename":"三亚夏日百货TOMMY专柜","fullAddress":null,"ename1":"354","ename2":"109.529819,18.229407","province":"海南省","city":"三亚市","district":"","address":"大东海海韵路1号夏日百货一楼","extension":"1","phone":"","hours":"9:30-21:30（周末延后30分钟）","storeImage":null,"mapImage":null,"postcode":null,"platformWarehouse":null,"selfpick":null,"subscribe":null},{"id":200,"name":"成都群光广场TOMMY专柜","ename":"成都群光广场TOMMY专柜","fullAddress":null,"ename1":"355","ename2":"104.08331,30.659936","province":"四川省","city":"成都市","district":"锦江区","address":"春熙路南段8号群光广场1楼","extension":"1","phone":"","hours":"10:00-22:00","storeImage":null,"mapImage":null,"postcode":null,"platformWarehouse":null,"selfpick":null,"subscribe":null},{"id":208,"name":"成都乐天百货TOMMY 专柜","ename":"成都乐天百货TOMMY 专柜","fullAddress":null,"ename1":"147","ename2":"104.071678,30.573862","province":"四川省","city":"成都市","district":"","address":"天府大道北段1700号新世纪环球中心乐天百货1F","extension":"1","phone":"","hours":"10:00-22:00","storeImage":null,"mapImage":null,"postcode":null,"platformWarehouse":null,"selfpick":null,"subscribe":null},{"id":204,"name":"成都万象城TOMMY专柜","ename":"成都万象城TOMMY专柜","fullAddress":null,"ename1":"157","ename2":"104.127078,30.656505","province":"四川省","city":"成都市","district":"成华区","address":"双庆路6号2F","extension":"1","phone":"","hours":"10:00-21:00","storeImage":null,"mapImage":null,"postcode":null,"platformWarehouse":null,"selfpick":null,"subscribe":null},{"id":203,"name":"成都时代TOMMY OUTLETS","ename":"成都时代TOMMY OUTLETS","fullAddress":null,"ename1":"158","ename2":"103.949924,30.608577","province":"四川省","city":"成都市","district":"","address":"双楠大道中段633号1F","extension":"1","phone":"","hours":"10：00-22:00","storeImage":null,"mapImage":null,"postcode":null,"platformWarehouse":null,"selfpick":null,"subscribe":null},{"id":175,"name":"烟台贵和佰泓名店TOMMY专柜","ename":"烟台贵和佰泓名店TOMMY专柜","fullAddress":null,"ename1":"165","ename2":"121.40525,37.547999","province":"山东省","city":"烟台市","district":"芝罘区","address":"胜利路248号佰泓名店1F","extension":"1","phone":"","hours":"09:30-21:00","storeImage":null,"mapImage":null,"postcode":null,"platformWarehouse":null,"selfpick":null,"subscribe":null},{"id":172,"name":"青岛万象城TOMMY专柜","ename":"青岛万象城TOMMY专柜","fullAddress":null,"ename1":"169","ename2":"120.384598,36.073441","province":"山东省","city":"青岛市","district":"市南区","address":"山东路6号万象城L2","extension":"1","phone":"","hours":"10:00-22:00","storeImage":null,"mapImage":null,"postcode":null,"platformWarehouse":null,"selfpick":null,"subscribe":null},{"id":195,"name":"无锡苏宁TOMMY专柜","ename":"无锡苏宁TOMMY专柜","fullAddress":null,"ename1":"177","ename2":"120.309595,31.581322","province":"江苏省","city":"无锡市","district":"崇安区","address":"人民中路111号苏宁广场1楼","extension":"1","phone":"","hours":"10:00-22:00","storeImage":null,"mapImage":null,"postcode":null,"platformWarehouse":null,"selfpick":null,"subscribe":null},{"id":184,"name":"苏州泰华TOMMY专柜","ename":"苏州泰华TOMMY专柜","fullAddress":null,"ename1":"181","ename2":"120.631024,31.296216","province":"江苏省","city":"苏州市","district":"沧浪区","address":"人民路383号泰华商城西楼二楼","extension":"1","phone":"","hours":"10:00-22:00（周末延后30分钟）","storeImage":null,"mapImage":null,"postcode":null,"platformWarehouse":null,"selfpick":null,"subscribe":null},{"id":199,"name":"成都金牛万达TOMMY专柜","ename":"成都金牛万达TOMMY专柜","fullAddress":null,"ename1":"358","ename2":"104.081028,30.692668","province":"四川省","city":"成都市","district":"金牛区","address":"成都市一环路北三段1号","extension":"1","phone":"","hours":"10:00-22:00","storeImage":null,"mapImage":null,"postcode":null,"platformWarehouse":null,"selfpick":null,"subscribe":null},{"id":182,"name":"连云港苏宁TOMMY专柜","ename":"连云港苏宁TOMMY专柜","fullAddress":null,"ename1":"389","ename2":"119.192385,34.602386","province":"江苏省","city":"连云港市","district":"新浦区","address":" 连海中路7号苏宁购物中心一楼","extension":"1","phone":"","hours":"周一至周四9.30---21.3；周五周六周日9.30--21.45","storeImage":null,"mapImage":null,"postcode":null,"platformWarehouse":null,"selfpick":null,"subscribe":null},{"id":201,"name":"成都仁和春天百货人东店TOMMY专柜","ename":"成都仁和春天百货人东店TOMMY专柜","fullAddress":null,"ename1":"184","ename2":"104.075306,30.66415","province":"四川省","city":"成都市","district":"锦江区","address":"人民东路59号仁和春天百貨公司3F-G05","extension":"1","phone":"","hours":"10:00-22:00","storeImage":null,"mapImage":null,"postcode":null,"platformWarehouse":null,"selfpick":null,"subscribe":null},{"id":202,"name":"成都仁和春天光华店TOMMY专柜","ename":"成都仁和春天光华店TOMMY专柜","fullAddress":null,"ename1":"191","ename2":"104.027127,30.669296","province":"四川省","city":"成都市","district":"青羊区","address":"青华路46号仁和春天百货3F","extension":"1","phone":"","hours":"10:00-22:00","storeImage":null,"mapImage":null,"postcode":null,"platformWarehouse":null,"selfpick":null,"subscribe":null},{"id":185,"name":"昆山百盛TOMMY专柜","ename":"昆山百盛TOMMY专柜","fullAddress":null,"ename1":"195","ename2":"120.960628,31.388586","province":"江苏省","city":"请选择市/区-","district":"","address":"前进西路300号百盛购物中心1楼","extension":"1","phone":"","hours":"10:00-22:00（周末延后30分钟）","storeImage":null,"mapImage":null,"postcode":null,"platformWarehouse":null,"selfpick":null,"subscribe":null},{"id":205,"name":"成都王府井百货TOMMY专柜","ename":"成都王府井百货TOMMY专柜","fullAddress":null,"ename1":"40","ename2":"104.086056,30.663751","province":"四川省","city":"成都市","district":"锦江区","address":"总府路15号王府井大厦2F","extension":"1","phone":"","hours":"10:00-22:00","storeImage":null,"mapImage":null,"postcode":null,"platformWarehouse":null,"selfpick":null,"subscribe":null},{"id":189,"name":"昆山金鹰TOMMY专柜","ename":"昆山金鹰TOMMY专柜","fullAddress":null,"ename1":"43","ename2":"120.981447,31.382132","province":"江苏省","city":"请选择市/区-","district":"","address":"珠江路199号昆山金鹰天地广场1楼","extension":"1","phone":"","hours":"10:00-22:00","storeImage":null,"mapImage":null,"postcode":null,"platformWarehouse":null,"selfpick":null,"subscribe":null},{"id":191,"name":"无锡大东方TOMMY专柜","ename":"无锡大东方TOMMY专柜","fullAddress":null,"ename1":"52","ename2":"120.305628,31.583189","province":"江苏省","city":"无锡市","district":"崇安区","address":"中山路343号大东方百货4楼","extension":"1","phone":"","hours":"9:30-22:00","storeImage":null,"mapImage":null,"postcode":null,"platformWarehouse":null,"selfpick":null,"subscribe":null},{"id":186,"name":"苏州时尚舞台奥莱TOMMY专柜","ename":"苏州时尚舞台奥莱TOMMY专柜","fullAddress":null,"ename1":"108","ename2":"120.828532,31.347389","province":"江苏省","city":"苏州市","district":"","address":"现代大道后戴街时尚舞台5104","extension":"1","phone":"","hours":"10:00-21:45","storeImage":null,"mapImage":null,"postcode":null,"platformWarehouse":null,"selfpick":null,"subscribe":null},{"id":192,"name":"无锡百联奥莱TOMMY专柜","ename":"无锡百联奥莱TOMMY专柜","fullAddress":null,"ename1":"115","ename2":"120.451164,31.527062","province":"江苏省","city":"无锡市","district":"","address":"锡勤路18号百联奥特莱斯广场A区A3-108B","extension":"1","phone":"","hours":"9:30-21:30（周末延后30分钟）","storeImage":null,"mapImage":null,"postcode":null,"platformWarehouse":null,"selfpick":null,"subscribe":null},{"id":187,"name":"苏州邻瑞TOMMY专柜","ename":"苏州邻瑞TOMMY专柜","fullAddress":null,"ename1":"117","ename2":"120.725279,31.303006","province":"江苏省","city":"苏州市","district":"","address":"西华林街88号邻瑞广场一楼","extension":"1","phone":"","hours":"10:00-21:00（周末延后30分钟）","storeImage":null,"mapImage":null,"postcode":null,"platformWarehouse":null,"selfpick":null,"subscribe":null},{"id":174,"name":"烟台振华商场TOMMY专柜","ename":"烟台振华商场TOMMY专柜","fullAddress":null,"ename1":"121","ename2":"121.391442,37.547468","province":"山东省","city":"烟台市","district":"芝罘区","address":"西大街8号振华商厦2F","extension":"1","phone":"","hours":"09:30-21:00","storeImage":null,"mapImage":null,"postcode":null,"platformWarehouse":null,"selfpick":null,"subscribe":null},{"id":190,"name":"苏州久光TOMMY专柜","ename":"苏州久光TOMMY专柜","fullAddress":null,"ename1":"137","ename2":"120.721899,31.326487","province":"江苏省","city":"苏州市","district":"","address":"旺墩路久光百货1楼黄区","extension":"1","phone":"","hours":"9:30-22:00","storeImage":null,"mapImage":null,"postcode":null,"platformWarehouse":null,"selfpick":null,"subscribe":null},{"id":193,"name":"无锡英特宜家TOMMY专柜","ename":"无锡英特宜家TOMMY专柜","fullAddress":null,"ename1":"140","ename2":"120.402923,31.588691","province":"江苏省","city":"无锡市","district":"锡山区","address":"团结大道7号因特宜家购物中心二楼5-11-22-su","extension":"1","phone":"","hours":"10:00-21:30（周末延后30分钟）","storeImage":null,"mapImage":null,"postcode":null,"platformWarehouse":null,"selfpick":null,"subscribe":null},{"id":176,"name":"淄博银座TOMMY专柜","ename":"淄博银座TOMMY专柜","fullAddress":null,"ename1":"226","ename2":"118.055315,36.807821","province":"山东省","city":"淄博市","district":"张店区","address":"柳泉路88号银座商城2F","extension":"1","phone":"","hours":"09:30-20:00","storeImage":null,"mapImage":null,"postcode":null,"platformWarehouse":null,"selfpick":null,"subscribe":null},{"id":194,"name":"无锡海岸城TOMMY专柜","ename":"无锡海岸城TOMMY专柜","fullAddress":null,"ename1":"233","ename2":"120.310034,31.494983","province":"江苏省","city":"无锡市","district":"滨湖区","address":"立信大道与方庙路海岸城购物中心一楼129号","extension":"1","phone":"","hours":"10:00-22:00","storeImage":null,"mapImage":null,"postcode":null,"platformWarehouse":null,"selfpick":null,"subscribe":null},{"id":173,"name":"青岛嘉年华奥莱TOMMY专柜","ename":"青岛嘉年华奥莱TOMMY专柜","fullAddress":null,"ename1":"234","ename2":"120.173422,35.936592","province":"山东省","city":"青岛市","district":"黄岛区","address":"漓江西路1166号海上嘉年华","extension":"1","phone":"","hours":"10:00-22:00","storeImage":null,"mapImage":null,"postcode":null,"platformWarehouse":null,"selfpick":null,"subscribe":null},{"id":206,"name":"成都王府井二店TOMMY专柜","ename":"成都王府井二店TOMMY专柜","fullAddress":null,"ename1":"239","ename2":"104.083106,30.624404","province":"四川省","city":"成都市","district":"武侯区","address":"科华中路9号2F","extension":"1","phone":"","hours":"10:00-22:00","storeImage":null,"mapImage":null,"postcode":null,"platformWarehouse":null,"selfpick":null,"subscribe":null},{"id":178,"name":"济宁贵和TOMMY专柜","ename":"济宁贵和TOMMY专柜","fullAddress":null,"ename1":"248","ename2":"116.641663,35.435258","province":"山东省","city":"济宁市","district":"市中区","address":"金宇路58号贵和广场2F","extension":"1","phone":"","hours":"10:00-21:30","storeImage":null,"mapImage":null,"postcode":null,"platformWarehouse":null,"selfpick":null,"subscribe":null},{"id":177,"name":"淄博万象汇TOMMY专柜","ename":"淄博万象汇TOMMY专柜","fullAddress":null,"ename1":"254","ename2":"118.067402,36.808522","province":"山东省","city":"淄博市","district":"张店区","address":"金晶大道66号万象汇1F","extension":"1","phone":"","hours":"09:00-21:00","storeImage":null,"mapImage":null,"postcode":null,"platformWarehouse":null,"selfpick":null,"subscribe":null},{"id":216,"name":"绵阳万达TOMMY专柜","ename":"绵阳万达TOMMY专柜","fullAddress":null,"ename1":"278","ename2":"104.726823,31.459372","province":"四川省","city":"绵阳市","district":"涪城区","address":"花园路9号万达广场1F","extension":"1","phone":"","hours":"09：30-22：00","storeImage":null,"mapImage":null,"postcode":null,"platformWarehouse":null,"selfpick":null,"subscribe":null},{"id":231,"name":"西安老城根TOMMY专柜","ename":"西安老城根TOMMY专柜","fullAddress":null,"ename1":"290","ename2":"108.050867,34.072215","province":"陕西省","city":"西安市","district":"莲湖区","address":"红庙坡十字西南角G-park1F-33a","extension":"1","phone":"","hours":"星期一至星期四.星期日10：00—22：00星期五六10：00—22：30","storeImage":null,"mapImage":null,"postcode":null,"platformWarehouse":null,"selfpick":null,"subscribe":null},{"id":254,"name":"西宁海湖万达TOMMY专柜","ename":"西宁海湖万达TOMMY专柜","fullAddress":null,"ename1":"303","ename2":"101.722442,36.648531","province":"青海省","city":"西宁市","district":"","address":"广场路1号海湖万达广场1楼","extension":"1","phone":"","hours":"10:00-21:00","storeImage":null,"mapImage":null,"postcode":null,"platformWarehouse":null,"selfpick":null,"subscribe":null},{"id":253,"name":"兰州城关万达TOMMY专柜","ename":"兰州城关万达TOMMY专柜","fullAddress":null,"ename1":"142","ename2":"103.868734,36.069302","province":"甘肃省","city":"兰州市","district":"城关区","address":"天水北路万达广场1楼","extension":"1","phone":"","hours":"10:00-20:30","storeImage":null,"mapImage":null,"postcode":null,"platformWarehouse":null,"selfpick":null,"subscribe":null},{"id":235,"name":"西安砂之船奥莱TOMMY专柜","ename":"西安砂之船奥莱TOMMY专柜","fullAddress":null,"ename1":"162","ename2":"109.052051,34.349141","province":"陕西省","city":"西安市","district":"灞桥区","address":"世博大道5001号一楼","extension":"1","phone":"","hours":"10:00-22:00","storeImage":null,"mapImage":null,"postcode":null,"platformWarehouse":null,"selfpick":null,"subscribe":null},{"id":221,"name":"眉山雕像国际TOMMY专柜","ename":"眉山雕像国际TOMMY专柜","fullAddress":null,"ename1":"173","ename2":"103.842328,30.053454","province":"四川省","city":"眉山市","district":"东坡区","address":"三苏路37号眉山雕像国际广场1F-030号","extension":"1","phone":"","hours":"10:00_20:00","storeImage":null,"mapImage":null,"postcode":null,"platformWarehouse":null,"selfpick":null,"subscribe":null},{"id":237,"name":"宝鸡天下汇TOMMY专柜","ename":"宝鸡天下汇TOMMY专柜","fullAddress":null,"ename1":"313","ename2":"107.229471,34.356678","province":"陕西省","city":"宝鸡市","district":"渭滨区","address":"高新大道高新4路46号一楼中厅","extension":"1","phone":"","hours":"10:00-21:30","storeImage":null,"mapImage":null,"postcode":null,"platformWarehouse":null,"selfpick":null,"subscribe":null},{"id":234,"name":"西安曲江金鹰TOMMY专柜","ename":"西安曲江金鹰TOMMY专柜","fullAddress":null,"ename1":"325","ename2":"113.642178,24.651898","province":"陕西省","city":"西安市","district":"雁塔区","address":"芙蓉东路曲江金鹰一楼","extension":"1","phone":"","hours":"10：00-21：30","storeImage":null,"mapImage":null,"postcode":null,"platformWarehouse":null,"selfpick":null,"subscribe":null},{"id":212,"name":"成都青羊万达TOMMY专柜","ename":"成都青羊万达TOMMY专柜","fullAddress":null,"ename1":"175","ename2":"103.978837,30.681374","province":"四川省","city":"成都市","district":"青羊区","address":"日月大道一段978号，成都青羊万达广场1楼","extension":"1","phone":"","hours":"10:00-22:00","storeImage":null,"mapImage":null,"postcode":null,"platformWarehouse":null,"selfpick":null,"subscribe":null},{"id":227,"name":"西安世纪金花时代广场TOMMY专柜","ename":"西安世纪金花时代广场TOMMY专柜","fullAddress":null,"ename1":"205","ename2":"108.955133,34.25492","province":"陕西省","city":"西安市","district":"碑林区","address":"南门外世纪金花珠江时代广场二楼","extension":"1","phone":"","hours":"10:00-22:00","storeImage":null,"mapImage":null,"postcode":null,"platformWarehouse":null,"selfpick":null,"subscribe":null},{"id":233,"name":"西安西恩奥莱TOMMY专柜","ename":"西安西恩奥莱TOMMY专柜","fullAddress":null,"ename1":"326","ename2":"109.182253,34.370551","province":"陕西省","city":"西安市","district":"临潼区","address":"凤凰大道11号王府井赛特奥莱临潼店1F","extension":"1","phone":"","hours":"10:00-22:00","storeImage":null,"mapImage":null,"postcode":null,"platformWarehouse":null,"selfpick":null,"subscribe":null},{"id":262,"name":"南昌红谷天虹TOMMY专柜","ename":"南昌红谷天虹TOMMY专柜","fullAddress":null,"ename1":"219","ename2":"115.870731,28.695456","province":"江西省","city":"南昌市","district":"红谷滩新区","address":"绿茵路129号一楼","extension":"1","phone":"","hours":"10：00-22：00","storeImage":null,"mapImage":null,"postcode":null,"platformWarehouse":null,"selfpick":null,"subscribe":null},{"id":225,"name":"西安世纪金花赛高店TOMMY专柜","ename":"西安世纪金花赛高店TOMMY专柜","fullAddress":null,"ename1":"327","ename2":"124.07296,40.57957","province":"陕西省","city":"西安市","district":"未央区","address":"凤城五路赛高世纪金花一楼","extension":"1","phone":"","hours":"10:00-22:00","storeImage":null,"mapImage":null,"postcode":null,"platformWarehouse":null,"selfpick":null,"subscribe":null},{"id":215,"name":"绵阳百盛大都会TOMMY专柜","ename":"绵阳百盛大都会TOMMY专柜","fullAddress":null,"ename1":"227","ename2":"104.751197,31.470203","province":"四川省","city":"绵阳市","district":"涪城区","address":"临园路东段68号绵阳大都会百盛店一楼","extension":"1","phone":"","hours":"9:30-22:00","storeImage":null,"mapImage":null,"postcode":null,"platformWarehouse":null,"selfpick":null,"subscribe":null},{"id":230,"name":"西安王府井二店TOMMY专柜","ename":"西安王府井二店TOMMY专柜","fullAddress":null,"ename1":"329","ename2":"108.952954,34.252873","province":"陕西省","city":"西安市","district":"未央区","address":"风城七路王府井百货一楼","extension":"1","phone":"","hours":"10:00-21:30","storeImage":null,"mapImage":null,"postcode":null,"platformWarehouse":null,"selfpick":null,"subscribe":null},{"id":232,"name":"西安鑫苑大都汇TOMMY专柜","ename":"西安鑫苑大都汇TOMMY专柜","fullAddress":null,"ename1":"333","ename2":"108.909388,34.286852","province":"陕西省","city":"西安市","district":"莲湖区","address":"丰禾路251号鑫苑大都汇一楼F1-18号","extension":"1","phone":"","hours":"10:30-22:00 10:30-22:30","storeImage":null,"mapImage":null,"postcode":null,"platformWarehouse":null,"selfpick":null,"subscribe":null},{"id":256,"name":"银川新华联TOMMY专柜","ename":"银川新华联TOMMY专柜","fullAddress":null,"ename1":"371","ename2":"106.187603,38.493402","province":"宁夏回族自治区","city":"银川市","district":"金凤区","address":"北京西路新华联购物广场1楼","extension":"1","phone":"","hours":"10:00-21:00","storeImage":null,"mapImage":null,"postcode":null,"platformWarehouse":null,"selfpick":null,"subscribe":null},{"id":220,"name":"泸州万象汇TOMMY专柜","ename":"泸州万象汇TOMMY专柜","fullAddress":null,"ename1":"240","ename2":"105.417031,28.899827","province":"四川省","city":"泸州市","district":"江阳区","address":"康城路1号佳乐世纪城华润万象汇购物中心1F","extension":"1","phone":"","hours":"10:00-22:00","storeImage":null,"mapImage":null,"postcode":null,"platformWarehouse":null,"selfpick":null,"subscribe":null},{"id":236,"name":"宝鸡开元商城TOMMY专柜","ename":"宝鸡开元商城TOMMY专柜","fullAddress":null,"ename1":"245","ename2":"107.157292,34.375928","province":"陕西省","city":"宝鸡市","district":"渭滨区","address":"经二路154号开元商场一楼","extension":"1","phone":"","hours":"10：00-21：00","storeImage":null,"mapImage":null,"postcode":null,"platformWarehouse":null,"selfpick":null,"subscribe":null},{"id":260,"name":"南昌财富广场TOMMY专柜","ename":"南昌财富广场TOMMY专柜","fullAddress":null,"ename1":"383","ename2":"115.910233,28.683872","province":"江西省","city":"南昌市","district":"东湖区","address":"八一大道357号一楼","extension":"1","phone":"","hours":"10:00-22:00","storeImage":null,"mapImage":null,"postcode":null,"platformWarehouse":null,"selfpick":null,"subscribe":null},{"id":229,"name":"西安开元商城TOMMY专柜","ename":"西安开元商城TOMMY专柜","fullAddress":null,"ename1":"255","ename2":"108.954329,34.264917","province":"陕西省","city":"西安市","district":"碑林区","address":"解放市场6号开元钟楼店负一楼","extension":"1","phone":"","hours":"10：00-22：00","storeImage":null,"mapImage":null,"postcode":null,"platformWarehouse":null,"selfpick":null,"subscribe":null},{"id":213,"name":"成都金牛凯德TOMMY专柜","ename":"成都金牛凯德TOMMY专柜","fullAddress":null,"ename1":"264","ename2":"104.050665,30.710709","province":"四川省","city":"成都市","district":"金牛区","address":"交大路183号凯德广场金牛(B)01层03号","extension":"1","phone":"","hours":"10:00-22:00","storeImage":null,"mapImage":null,"postcode":null,"platformWarehouse":null,"selfpick":null,"subscribe":null},{"id":214,"name":"绵阳百盛TOMMY专柜","ename":"绵阳百盛TOMMY专柜","fullAddress":null,"ename1":"388","ename2":"104.755626,31.46497","province":"四川省","city":"绵阳市","district":"涪城区","address":"安昌路3-9号1F","extension":"1","phone":"","hours":"10:00-22:00","storeImage":null,"mapImage":null,"postcode":null,"platformWarehouse":null,"selfpick":null,"subscribe":null},{"id":255,"name":"银川金凤万达TOMMY专柜","ename":"银川金凤万达TOMMY专柜","fullAddress":null,"ename1":"64","ename2":"106.255979,38.493632","province":"宁夏回族自治区","city":"银川市","district":"金凤区","address":"正源北街金凤万达广场1层","extension":"1","phone":"","hours":"10:00-21:00","storeImage":null,"mapImage":null,"postcode":null,"platformWarehouse":null,"selfpick":null,"subscribe":null},{"id":251,"name":"银川妙音赛特奥莱TOMMY专柜","ename":"银川妙音赛特奥莱TOMMY专柜","fullAddress":null,"ename1":"65","ename2":"106.259879,38.516198","province":"宁夏回族自治区","city":"银川市","district":"金凤区","address":"正源北街建发大悦城一楼","extension":"1","phone":"","hours":"10:30-22:00","storeImage":null,"mapImage":null,"postcode":null,"platformWarehouse":null,"selfpick":null,"subscribe":null},{"id":257,"name":"合肥砂之船奥莱TOMMY专柜","ename":"合肥砂之船奥莱TOMMY专柜","fullAddress":null,"ename1":"72","ename2":"117.123668,31.844137","province":"安徽省","city":"合肥市","district":"高新区","address":"长宁大道与彩虹路交口砂之船奥特莱斯","extension":"1","phone":"","hours":"10:00-20:30","storeImage":null,"mapImage":null,"postcode":null,"platformWarehouse":null,"selfpick":null,"subscribe":null},{"id":218,"name":"德阳洋洋百货TOMMY专柜","ename":"德阳洋洋百货TOMMY专柜","fullAddress":null,"ename1":"73","ename2":"104.39507,31.133316","province":"四川省","city":"德阳市","district":"旌阳区","address":"长江西路二段一号1F","extension":"1","phone":"","hours":"10:00-21:30","storeImage":null,"mapImage":null,"postcode":null,"platformWarehouse":null,"selfpick":null,"subscribe":null},{"id":228,"name":"西安赛格国际购物中心TOMMY专柜","ename":"西安赛格国际购物中心TOMMY专柜","fullAddress":null,"ename1":"75","ename2":"108.954722,34.229652","province":"陕西省","city":"西安市","district":"雁塔区","address":"长安中路123号小寨赛格国际购物中心一楼","extension":"1","phone":"","hours":"10:00-22:00","storeImage":null,"mapImage":null,"postcode":null,"platformWarehouse":null,"selfpick":null,"subscribe":null},{"id":263,"name":"南昌西湖万达TOMMY专柜","ename":"南昌西湖万达TOMMY专柜","fullAddress":null,"ename1":"78","ename2":"115.865226,28.639223","province":"江西省","city":"南昌市","district":"西湖区","address":"云锦路368号一楼","extension":"1","phone":"","hours":"10：00-22：00","storeImage":null,"mapImage":null,"postcode":null,"platformWarehouse":null,"selfpick":null,"subscribe":null},{"id":252,"name":"拉萨百益TOMMY专柜","ename":"拉萨百益TOMMY专柜","fullAddress":null,"ename1":"83","ename2":"91.131572,29.65587","province":"西藏自治区","city":"拉萨市","district":"城关区","address":"宇拓路百益百货1楼","extension":"1","phone":"","hours":"10:00-21:00","storeImage":null,"mapImage":null,"postcode":null,"platformWarehouse":null,"selfpick":null,"subscribe":null},{"id":222,"name":"成都佛罗伦萨奥莱TOMMY专柜","ename":"成都佛罗伦萨奥莱TOMMY专柜","fullAddress":null,"ename1":"89","ename2":"103.639894,31.014988","province":"四川省","city":"成都市","district":"","address":"银杏路888号一楼","extension":"1","phone":"","hours":"10:00-22:00","storeImage":null,"mapImage":null,"postcode":null,"platformWarehouse":null,"selfpick":null,"subscribe":null},{"id":223,"name":"西安曲江银泰TOMMY专柜","ename":"西安曲江银泰TOMMY专柜","fullAddress":null,"ename1":"92","ename2":"108.969848,34.212171","province":"陕西省","city":"西安市","district":"雁塔区","address":"雁南二路北侧银泰城一层","extension":"1","phone":"","hours":"10：00一21：00","storeImage":null,"mapImage":null,"postcode":null,"platformWarehouse":null,"selfpick":null,"subscribe":null},{"id":226,"name":"西安世纪金花钟楼店TOMMY专柜","ename":"西安世纪金花钟楼店TOMMY专柜","fullAddress":null,"ename1":"120","ename2":"119.912439,31.798511","province":"陕西省","city":"西安市","district":"莲湖区","address":"西大街一号钟楼世纪金花负二楼","extension":"1","phone":"","hours":"10:00-10:00","storeImage":null,"mapImage":null,"postcode":null,"platformWarehouse":null,"selfpick":null,"subscribe":null},{"id":258,"name":"合肥包河万达广场TOMMY专柜","ename":"合肥包河万达广场TOMMY专柜","fullAddress":null,"ename1":"132","ename2":"117.284654,31.851765","province":"安徽省","city":"合肥市","district":"包河区","address":"芜湖路包河万达广场内街1楼","extension":"1","phone":"","hours":"10:00-21:00","storeImage":null,"mapImage":null,"postcode":null,"platformWarehouse":null,"selfpick":null,"subscribe":null},{"id":219,"name":"乐山王府井TOMMY专柜","ename":"乐山王府井TOMMY专柜","fullAddress":null,"ename1":"141","ename2":"103.758273,29.58901","province":"四川省","city":"乐山市","district":"市中区","address":"天星路158号王府井购物中心1F","extension":"1","phone":"","hours":"09:30-22:00","storeImage":null,"mapImage":null,"postcode":null,"platformWarehouse":null,"selfpick":null,"subscribe":null},{"id":267,"name":"乌鲁木齐天山百货TOMMY专柜","ename":"乌鲁木齐天山百货TOMMY专柜","fullAddress":null,"ename1":"292","ename2":"87.632235,43.800293","province":"新疆维吾尔自治区","city":"乌鲁木齐市","district":"天山区","address":"和平北路16号天山百货大楼2F","extension":"1","phone":"","hours":"10:00-22:00","storeImage":null,"mapImage":null,"postcode":null,"platformWarehouse":null,"selfpick":null,"subscribe":null},{"id":276,"name":"武汉菱角湖万达TOMMY专柜","ename":"武汉菱角湖万达TOMMY专柜","fullAddress":null,"ename1":"149","ename2":"114.2749,30.616584","province":"湖北省","city":"武汉市","district":"江汉区","address":"唐家墩路5号万达广场1楼TOMMY专柜","extension":"1","phone":"","hours":"10:00-21:30","storeImage":null,"mapImage":null,"postcode":null,"platformWarehouse":null,"selfpick":null,"subscribe":null},{"id":299,"name":"南京百联奥莱TOMMY专柜","ename":"南京百联奥莱TOMMY专柜","fullAddress":null,"ename1":"150","ename2":"119.059265,32.03457","province":"江苏省","city":"南京市","district":"江宁区","address":"汤山街道圣汤大道99号汤山百联奥特莱斯A2-104","extension":"1","phone":"","hours":"10:00-21:00","storeImage":null,"mapImage":null,"postcode":null,"platformWarehouse":null,"selfpick":null,"subscribe":null},{"id":282,"name":"长沙德思勤TOMMY专柜","ename":"长沙德思勤TOMMY专柜","fullAddress":null,"ename1":"168","ename2":"112.996512,28.118351","province":"湖南省","city":"请选择市/区-","district":"","address":"韶山南路与湘府东路交汇处德思勤城市购物广场一楼TOMMY专柜","extension":"1","phone":"","hours":"9:30-22:00","storeImage":null,"mapImage":null,"postcode":null,"platformWarehouse":null,"selfpick":null,"subscribe":null},{"id":273,"name":"武汉汉街万达TOMMY专柜","ename":"武汉汉街万达TOMMY专柜","fullAddress":null,"ename1":"172","ename2":"114.344567,30.563747","province":"湖北省","city":"武汉市","district":"武昌区","address":"沙湖大道18号汉街万达百货1楼Tommy专柜","extension":"1","phone":"","hours":"11:00-21:00","storeImage":null,"mapImage":null,"postcode":null,"platformWarehouse":null,"selfpick":null,"subscribe":null},{"id":292,"name":"南京金鹰国际TOMMY专柜","ename":"南京金鹰国际TOMMY专柜","fullAddress":null,"ename1":"293","ename2":"118.785777,32.047998","province":"江苏省","city":"南京市","district":"玄武区","address":"汉中路89号金鹰购物中心新街口店B座L2","extension":"1","phone":"","hours":"10:00-22:00","storeImage":null,"mapImage":null,"postcode":null,"platformWarehouse":null,"selfpick":null,"subscribe":null},{"id":301,"name":"扬州万达TOMMY专柜","ename":"扬州万达TOMMY专柜","fullAddress":null,"ename1":"294","ename2":"119.406622,32.374211","province":"江苏省","city":"扬州市","district":"邗江区","address":"邗江中路302号万达广场一楼1039号店铺","extension":"1","phone":"","hours":"10:00-22:00","storeImage":null,"mapImage":null,"postcode":null,"platformWarehouse":null,"selfpick":null,"subscribe":null},{"id":287,"name":"长沙时代奥莱南星TOMMY专柜","ename":"长沙时代奥莱南星TOMMY专柜","fullAddress":null,"ename1":"310","ename2":"112.695333,28.275254","province":"湖南省","city":"请选择市/区-","district":"","address":"工业集中区欧洲北路168号时代奥特莱斯H区120号TOMMY专柜","extension":"1","phone":"","hours":"9:30-22:00","storeImage":null,"mapImage":null,"postcode":null,"platformWarehouse":null,"selfpick":null,"subscribe":null},{"id":288,"name":"长沙华创国际TOMMY专柜","ename":"长沙华创国际TOMMY专柜","fullAddress":null,"ename1":"323","ename2":"112.995067,28.229984","province":"湖南省","city":"请选择市/区-","district":"","address":"芙蓉中路一段113号99号华创国际广场一楼TOMMY ","extension":"1","phone":"","hours":"10:00-21:00","storeImage":null,"mapImage":null,"postcode":null,"platformWarehouse":null,"selfpick":null,"subscribe":null},{"id":286,"name":"长沙友阿奥莱TOMMY专柜","ename":"长沙友阿奥莱TOMMY专柜","fullAddress":null,"ename1":"324","ename2":"112.999077,28.075929","province":"湖南省","city":"请选择市/区-","district":"","address":"芙蓉南路三段27号友阿奥特莱斯A121TOMMY专柜","extension":"1","phone":"","hours":"9:30-22:00","storeImage":null,"mapImage":null,"postcode":null,"platformWarehouse":null,"selfpick":null,"subscribe":null},{"id":277,"name":"武汉盘龙奥特莱斯TOMMY专柜","ename":"武汉盘龙奥特莱斯TOMMY专柜","fullAddress":null,"ename1":"200","ename2":"114.264738,30.735678","province":"湖北省","city":"武汉市","district":"黄陂区","address":"盘龙城经济开发区盘龙大道196号百联奥特莱斯广场A区7-017","extension":"1","phone":"","hours":"10:00-22:00","storeImage":null,"mapImage":null,"postcode":null,"platformWarehouse":null,"selfpick":null,"subscribe":null},{"id":298,"name":"南京砂之船奥莱TOMMY专柜","ename":"南京砂之船奥莱TOMMY专柜","fullAddress":null,"ename1":"215","ename2":"118.835559,31.872973","province":"江苏省","city":"南京市","district":"江宁区","address":"秣周东路18号砂之船1楼B34-35","extension":"1","phone":"","hours":"10:00-22:00","storeImage":null,"mapImage":null,"postcode":null,"platformWarehouse":null,"selfpick":null,"subscribe":null},{"id":275,"name":"武汉光谷世界城TOMMY专柜","ename":"武汉光谷世界城TOMMY专柜","fullAddress":null,"ename1":"220","ename2":"114.408271,30.510418","province":"湖北省","city":"武汉市","district":"洪山区","address":"珞喻路726号世界城1楼TOMMY专柜","extension":"1","phone":"","hours":"9:30-21:00 周末延时22：00","storeImage":null,"mapImage":null,"postcode":null,"platformWarehouse":null,"selfpick":null,"subscribe":null},{"id":283,"name":"长沙梅溪步步高TOMMY专柜","ename":"长沙梅溪步步高TOMMY专柜","fullAddress":null,"ename1":"328","ename2":"112.868724,28.206127","province":"湖南省","city":"请选择市/区-","district":"","address":"枫林三路1099号步步高梅溪新天地G层TOMMY专柜","extension":"1","phone":"","hours":"10:00-22:00","storeImage":null,"mapImage":null,"postcode":null,"platformWarehouse":null,"selfpick":null,"subscribe":null},{"id":266,"name":"赣州万象城TOMMY专柜","ename":"赣州万象城TOMMY专柜","fullAddress":null,"ename1":"346","ename2":"114.932524,25.821553","province":"江西省","city":"赣州市","district":"","address":"登峰大道8号一楼","extension":"1","phone":"","hours":"10：00-22：00","storeImage":null,"mapImage":null,"postcode":null,"platformWarehouse":null,"selfpick":null,"subscribe":null},{"id":274,"name":"武汉群光广场TOMMY专柜","ename":"武汉群光广场TOMMY专柜","fullAddress":null,"ename1":"221","ename2":"114.361641,30.531346","province":"湖北省","city":"武汉市","district":"洪山区","address":"珞瑜路6号群光广场1楼TOMMY专柜","extension":"1","phone":"","hours":"10:00-22:00","storeImage":null,"mapImage":null,"postcode":null,"platformWarehouse":null,"selfpick":null,"subscribe":null},{"id":264,"name":"南昌杉杉奥莱TOMMY专柜","ename":"南昌杉杉奥莱TOMMY专柜","fullAddress":null,"ename1":"243","ename2":"115.812012,28.622204","province":"江西省","city":"南昌市","district":"红谷滩新区","address":"九龙大道3388号一楼","extension":"1","phone":"","hours":"10：00-22：00","storeImage":null,"mapImage":null,"postcode":null,"platformWarehouse":null,"selfpick":null,"subscribe":null},{"id":293,"name":"南京建邺万达TOMMY专柜","ename":"南京建邺万达TOMMY专柜","fullAddress":null,"ename1":"266","ename2":"118.743859,32.038996","province":"江苏省","city":"南京市","district":"建邺区","address":"江东中路98号建邺万达广场一楼120A","extension":"1","phone":"","hours":"10:00-22:00","storeImage":null,"mapImage":null,"postcode":null,"platformWarehouse":null,"selfpick":null,"subscribe":null},{"id":281,"name":"长沙友阿春天TOMMY专柜","ename":"长沙友阿春天TOMMY专柜","fullAddress":null,"ename1":"270","ename2":"112.982387,28.199668","province":"湖南省","city":"请选择市/区-","district":"","address":"黄兴中路63号友阿春天百货一楼TOMMY专柜","extension":"1","phone":"","hours":"10:00-22:00","storeImage":null,"mapImage":null,"postcode":null,"platformWarehouse":null,"selfpick":null,"subscribe":null},{"id":272,"name":"伊犁天山百货TOMMY专柜","ename":"伊犁天山百货TOMMY专柜","fullAddress":null,"ename1":"353","ename2":"121.491718,31.218012","province":"新疆维吾尔自治区","city":"请选择市/区-","district":"","address":"大林街东路18号1F","extension":"1","phone":"","hours":"11:00-21:00","storeImage":null,"mapImage":null,"postcode":null,"platformWarehouse":null,"selfpick":null,"subscribe":null},{"id":269,"name":"乌鲁木齐汇嘉时代广场TOMMY专柜","ename":"乌鲁木齐汇嘉时代广场TOMMY专柜","fullAddress":null,"ename1":"370","ename2":"87.563788,43.881911","province":"新疆维吾尔自治区","city":"乌鲁木齐市","district":"新市区","address":"北京中路147号汇嘉时代1F","extension":"1","phone":"","hours":"11:00-21:00","storeImage":null,"mapImage":null,"postcode":null,"platformWarehouse":null,"selfpick":null,"subscribe":null},{"id":280,"name":"长沙开福万达TOMMY专柜","ename":"长沙开福万达TOMMY专柜","fullAddress":null,"ename1":"51","ename2":"112.97789,28.207756","province":"湖南省","city":"请选择市/区-","district":"","address":"中山路589号万达广场一楼TOMMY专柜","extension":"1","phone":"","hours":"9:30-22:00","storeImage":null,"mapImage":null,"postcode":null,"platformWarehouse":null,"selfpick":null,"subscribe":null},{"id":291,"name":"南京德基TOMMY专柜","ename":"南京德基TOMMY专柜","fullAddress":null,"ename1":"53","ename2":"118.791109,32.051579","province":"江苏省","city":"南京市","district":"玄武区","address":"中山路18号德基广场二期3楼L341","extension":"1","phone":"","hours":"10:00-22:00","storeImage":null,"mapImage":null,"postcode":null,"platformWarehouse":null,"selfpick":null,"subscribe":null},{"id":296,"name":"南京紫峰TOMMY专柜","ename":"南京紫峰TOMMY专柜","fullAddress":null,"ename1":"58","ename2":"118.789263,32.066875","province":"江苏省","city":"南京市","district":"鼓楼区","address":"中山北路6号紫峰绿地购物广场1楼","extension":"1","phone":"","hours":"10:00-22:00","storeImage":null,"mapImage":null,"postcode":null,"platformWarehouse":null,"selfpick":null,"subscribe":null},{"id":265,"name":"赣州九方TOMMY专柜","ename":"赣州九方TOMMY专柜","fullAddress":null,"ename1":"67","ename2":"114.9426,25.842022","province":"江西省","city":"赣州市","district":"章贡区","address":"长征大道1号一楼","extension":"1","phone":"","hours":"10：00-21：30","storeImage":null,"mapImage":null,"postcode":null,"platformWarehouse":null,"selfpick":null,"subscribe":null},{"id":268,"name":"乌鲁木齐友好百盛TOMMY专柜","ename":"乌鲁木齐友好百盛TOMMY专柜","fullAddress":null,"ename1":"84","ename2":"87.606683,43.810825","province":"新疆维吾尔自治区","city":"乌鲁木齐市","district":"沙依巴克区","address":"友好南路668号友好百盛2F","extension":"1","phone":"","hours":"11:00-21:00","storeImage":null,"mapImage":null,"postcode":null,"platformWarehouse":null,"selfpick":null,"subscribe":null},{"id":271,"name":"乌鲁木齐喜来登酒店TOMMY专柜","ename":"乌鲁木齐喜来登酒店TOMMY专柜","fullAddress":null,"ename1":"85","ename2":"87.595675,43.82721","province":"新疆维吾尔自治区","city":"乌鲁木齐市","district":"沙依巴克区","address":"友好北路669号喜来登大酒店2F","extension":"1","phone":"","hours":"10:00-21:00","storeImage":null,"mapImage":null,"postcode":null,"platformWarehouse":null,"selfpick":null,"subscribe":null},{"id":270,"name":"乌鲁木齐友好百货TOMMY 专柜","ename":"乌鲁木齐友好百货TOMMY 专柜","fullAddress":null,"ename1":"86","ename2":"87.595905,43.830113","province":"新疆维吾尔自治区","city":"乌鲁木齐市","district":"沙依巴克区","address":"友好北路14号友好商场2F","extension":"1","phone":"","hours":"11:00-21:00","storeImage":null,"mapImage":null,"postcode":null,"platformWarehouse":null,"selfpick":null,"subscribe":null},{"id":294,"name":"南京河西金鹰TOMMY专柜","ename":"南京河西金鹰TOMMY专柜","fullAddress":null,"ename1":"87","ename2":"117.236165,39.084494","province":"江苏省","city":"南京市","district":"建邺区","address":"应天大街888号河西金鹰一楼","extension":"1","phone":"","hours":"10:00-22:00","storeImage":null,"mapImage":null,"postcode":null,"platformWarehouse":null,"selfpick":null,"subscribe":null},{"id":284,"name":"长沙万象汇TOMMY专柜","ename":"长沙万象汇TOMMY专柜","fullAddress":null,"ename1":"101","ename2":"113.093332,28.254592","province":"湖南省","city":"请选择市/区-","district":"","address":"星沙大道178号华润万象汇一楼TOMMY专柜","extension":"1","phone":"","hours":"10:00-22:00","storeImage":null,"mapImage":null,"postcode":null,"platformWarehouse":null,"selfpick":null,"subscribe":null},{"id":297,"name":"南京金鹰奥莱TOMMY专柜","ename":"南京金鹰奥莱TOMMY专柜","fullAddress":null,"ename1":"113","ename2":"118.932666,32.108812","province":"江苏省","city":"南京市","district":"栖霞区","address":"仙林大道学海路1号金鹰奥莱城D馆G层","extension":"1","phone":"","hours":"10:00-22:00","storeImage":null,"mapImage":null,"postcode":null,"platformWarehouse":null,"selfpick":null,"subscribe":null},{"id":279,"name":"长沙友谊商店TOMMY专柜","ename":"长沙友谊商店TOMMY专柜","fullAddress":null,"ename1":"0","ename2":"113.003922,28.200616","province":"湖南省","city":"请选择市/区-","district":"","address":"五一大道368号友谊商店A座二楼TOMMY专柜","extension":"1","phone":"","hours":"10:00-22:00","storeImage":null,"mapImage":null,"postcode":null,"platformWarehouse":null,"selfpick":null,"subscribe":null},{"id":300,"name":"扬州金鹰TOMMY专柜","ename":"扬州金鹰TOMMY专柜","fullAddress":null,"ename1":"133","ename2":"119.439501,32.399041","province":"江苏省","city":"扬州市","district":"广陵区","address":"汶河南路120号金鹰国际购物中心1F","extension":"1","phone":"","hours":"10:00-21:00","storeImage":null,"mapImage":null,"postcode":null,"platformWarehouse":null,"selfpick":null,"subscribe":null},{"id":325,"name":"大理泰业TOMMY专柜","ename":"大理泰业TOMMY专柜","fullAddress":null,"ename1":"151","ename2":"100.232173,25.591297","province":"云南省","city":"请选择市/区-","district":"","address":"泰安路昆百大泰业城1F","extension":"1","phone":"","hours":"10:00-22:00","storeImage":null,"mapImage":null,"postcode":null,"platformWarehouse":null,"selfpick":null,"subscribe":null},{"id":302,"name":"海口望海国际广场TOMMY专柜","ename":"海口望海国际广场TOMMY专柜","fullAddress":null,"ename1":"295","ename2":"110.35192,20.036004","province":"海南省","city":"海口市","district":"美兰区","address":"海秀东路8号望海国际购物广场一楼123号 ","extension":"1","phone":"","hours":"10:00-22:00","storeImage":null,"mapImage":null,"postcode":null,"platformWarehouse":null,"selfpick":null,"subscribe":null},{"id":321,"name":"昆明万达TOMMY专柜","ename":"昆明万达TOMMY专柜","fullAddress":null,"ename1":"296","ename2":"102.715768,25.013744","province":"云南省","city":"昆明市","district":"西山区","address":"海埂路万达广场1F-1053","extension":"1","phone":"","hours":"9:30-22:00","storeImage":null,"mapImage":null,"postcode":null,"platformWarehouse":null,"selfpick":null,"subscribe":null},{"id":306,"name":"东百店铺","ename":"东百店铺","fullAddress":null,"ename1":null,"ename2":"119.301318,26.091777","province":"福建省","city":"福州市","district":"鼓楼区","address":"杨桥东路东百百货2楼","extension":"1","phone":"0591-83818160","hours":"9:00-22:30","storeImage":null,"mapImage":null,"postcode":null,"platformWarehouse":null,"selfpick":null,"subscribe":null},{"id":329,"name":"佛山南海万科广场TOMMY专柜","ename":"佛山南海万科广场TOMMY专柜","fullAddress":null,"ename1":"299","ename2":"113.160079,23.041355","province":"广东省","city":"佛山市","district":"南海区","address":"桂澜路万科广场一楼M-113铺","extension":"1","phone":"","hours":"10:00-22:00","storeImage":null,"mapImage":null,"postcode":null,"platformWarehouse":null,"selfpick":null,"subscribe":null},{"id":324,"name":"昆明砂之船奥莱TOMMY专柜","ename":"昆明砂之船奥莱TOMMY专柜","fullAddress":null,"ename1":"171","ename2":"102.582564,24.924659 ","province":"云南省","city":"请选择市/区-","district":"","address":"砂之船奥特莱斯大道A座1F(A1-11)","extension":"1","phone":"","hours":"10:00-22:00","storeImage":null,"mapImage":null,"postcode":null,"platformWarehouse":null,"selfpick":null,"subscribe":null},{"id":304,"name":"海口日月广场TOMMY专柜","ename":"海口日月广场TOMMY专柜","fullAddress":null,"ename1":"174","ename2":"110.358028,20.022007","province":"海南省","city":"海口市","district":"琼山区","address":"日月广场水瓶座一楼105号 ","extension":"1","phone":"","hours":"9:00-22:30","storeImage":null,"mapImage":null,"postcode":null,"platformWarehouse":null,"selfpick":null,"subscribe":null},{"id":320,"name":"昆明爱琴海TOMMY专柜","ename":"昆明爱琴海TOMMY专柜","fullAddress":null,"ename1":"302","ename2":"102.691615,24.998253","province":"云南省","city":"昆明市","district":"西山区","address":"广福路爱琴海购物公园2号门1F","extension":"1","phone":"","hours":"10:00-22:00","storeImage":null,"mapImage":null,"postcode":null,"platformWarehouse":null,"selfpick":null,"subscribe":null},{"id":308,"name":"福州万象城TOMMY专柜","ename":"福州万象城TOMMY专柜","fullAddress":null,"ename1":"309","ename2":"119.297173,26.070858","province":"福建省","city":"福州市","district":"台江区","address":"工业路378号万象广场1F","extension":"1","phone":"","hours":"10:00-22:00","storeImage":null,"mapImage":null,"postcode":null,"platformWarehouse":null,"selfpick":null,"subscribe":null},{"id":314,"name":"晋江SM广场TOMMY专柜","ename":"晋江SM广场TOMMY专柜","fullAddress":null,"ename1":"320","ename2":"118.575521,24.784648","province":"福建省","city":"请选择市/区-","district":"","address":"福兴东路与和平南路交汇处西北侧SM国际广场一楼","extension":"1","phone":"","hours":"9:30-22:00","storeImage":null,"mapImage":null,"postcode":null,"platformWarehouse":null,"selfpick":null,"subscribe":null},{"id":307,"name":"福州仓山万达TOMMY专柜","ename":"福州仓山万达TOMMY专柜","fullAddress":null,"ename1":"198","ename2":"119.280269,26.043844","province":"福建省","city":"福州市","district":"仓山区","address":"浦上大道276号仓山万达广场1F","extension":"1","phone":"","hours":"8:00-18:00","storeImage":null,"mapImage":null,"postcode":null,"platformWarehouse":null,"selfpick":null,"subscribe":null},{"id":326,"name":"丽江国购TOMMY专柜","ename":"丽江国购TOMMY专柜","fullAddress":null,"ename1":"321","ename2":"100.228615,26.883559","province":"云南省","city":"丽江市","district":"古城区","address":"福慧路国际购物中心B栋1F","extension":"1","phone":"","hours":"10:00-22:00","storeImage":null,"mapImage":null,"postcode":null,"platformWarehouse":null,"selfpick":null,"subscribe":null},{"id":312,"name":"泉州新华都TOMMY专柜","ename":"泉州新华都TOMMY专柜","fullAddress":null,"ename1":"330","ename2":"118.613018,24.910106","province":"福建省","city":"泉州市","district":"丰泽区","address":"丰泽街与田安北路交叉处新华都百货1F","extension":"1","phone":"","hours":"10:00-22:00","storeImage":null,"mapImage":null,"postcode":null,"platformWarehouse":null,"selfpick":null,"subscribe":null},{"id":336,"name":"广州番禺海印又一城TOMMY专柜","ename":"广州番禺海印又一城TOMMY专柜","fullAddress":null,"ename1":"334","ename2":"113.355725,23.003595","province":"广东省","city":"广州市","district":"番禺区","address":"番禺大道383号海印又一城一期一层13号铺","extension":"1","phone":"","hours":"10:00-22:00","storeImage":null,"mapImage":null,"postcode":null,"platformWarehouse":null,"selfpick":null,"subscribe":null},{"id":337,"name":"南宁万象城TOMMY专柜","ename":"南宁万象城TOMMY专柜","fullAddress":null,"ename1":"216","ename2":"108.399269,22.817542","province":"广西壮族自治区","city":"请选择市/区-","district":"","address":"民族大道136号南宁华润中心万象城第L2层212号商铺","extension":"1","phone":"","hours":"10:00-22:00","storeImage":null,"mapImage":null,"postcode":null,"platformWarehouse":null,"selfpick":null,"subscribe":null},{"id":327,"name":"深圳龙岗万科广场TOMMY专柜","ename":"深圳龙岗万科广场TOMMY专柜","fullAddress":null,"ename1":"223","ename2":"114.248312,22.719926","province":"广东省","city":"深圳市","district":"龙岗区","address":"龙翔大道7188号万科天誉广场一楼34-35号铺","extension":"1","phone":"","hours":"10:00-22:00","storeImage":null,"mapImage":null,"postcode":null,"platformWarehouse":null,"selfpick":null,"subscribe":null},{"id":316,"name":"莆田正荣TOMMY专柜","ename":"莆田正荣TOMMY专柜","fullAddress":null,"ename1":"230","ename2":"119.035584,25.423696","province":"福建省","city":"莆田市","district":"荔城区","address":"荔园路与天妃路交叉路口正荣财富中心一楼1021","extension":"1","phone":"","hours":"10:00-22:00","storeImage":null,"mapImage":null,"postcode":null,"platformWarehouse":null,"selfpick":null,"subscribe":null},{"id":331,"name":"东莞万达TOMMY专柜","ename":"东莞万达TOMMY专柜","fullAddress":null,"ename1":"335","ename2":"113.787079,23.041089","province":"广东省","city":"东莞市","district":"东城区","address":"东纵路万达广场一层1046号铺","extension":"1","phone":"","hours":"10:00-22:00","storeImage":null,"mapImage":null,"postcode":null,"platformWarehouse":null,"selfpick":null,"subscribe":null},{"id":305,"name":"海口友谊阳光城TOMMY专柜","ename":"海口友谊阳光城TOMMY专柜","fullAddress":null,"ename1":"252","ename2":"110.330444,20.029446","province":"海南省","city":"海口市","district":"龙华区","address":"金龙路2号友谊阳光城一楼","extension":"1","phone":"","hours":"9:00-22:30","storeImage":null,"mapImage":null,"postcode":null,"platformWarehouse":null,"selfpick":null,"subscribe":null},{"id":315,"name":"宁德万达TOMMY专柜","ename":"宁德万达TOMMY专柜","fullAddress":null,"ename1":"263","ename2":"119.5453,26.662199","province":"福建省","city":"宁德市","district":"蕉城区","address":"蕉城区宁德万达广场天湖路1号156-157号","extension":"1","phone":"","hours":"10:00-22:00","storeImage":null,"mapImage":null,"postcode":null,"platformWarehouse":null,"selfpick":null,"subscribe":null},{"id":330,"name":"珠海华发商都TOMMY专柜","ename":"珠海华发商都TOMMY专柜","fullAddress":null,"ename1":"45","ename2":"113.516542,22.230135","province":"广东省","city":"珠海市","district":"香洲区","address":"珠海大道8号华发商都一层A1023b","extension":"1","phone":"","hours":"10:00-22:00","storeImage":null,"mapImage":null,"postcode":null,"platformWarehouse":null,"selfpick":null,"subscribe":null},{"id":333,"name":"东莞长安万科TOMMY专柜","ename":"东莞长安万科TOMMY专柜","fullAddress":null,"ename1":"69","ename2":"113.806492,22.806724","province":"广东省","city":"东莞市","district":"长安镇","address":"长青南路1号长安万科广场首层L1-003","extension":"1","phone":"","hours":"10:00-22:00","storeImage":null,"mapImage":null,"postcode":null,"platformWarehouse":null,"selfpick":null,"subscribe":null},{"id":334,"name":"汕头苏宁TOMMY专柜","ename":"汕头苏宁TOMMY专柜","fullAddress":null,"ename1":"70","ename2":"116.723265,23.367004","province":"广东省","city":"汕头市","district":"龙湖区","address":"长平路90号汕头苏宁广场第1层第105号商铺","extension":"1","phone":"","hours":"10:00-22:00","storeImage":null,"mapImage":null,"postcode":null,"platformWarehouse":null,"selfpick":null,"subscribe":null},{"id":310,"name":"福州东二环泰禾TOMMY专柜","ename":"福州东二环泰禾TOMMY专柜","fullAddress":null,"ename1":"79","ename2":"119.342523,26.097893","province":"福建省","city":"福州市","district":"晋安区","address":"岳峰镇竹屿路6号东二环泰禾广场2楼L221号","extension":"1","phone":"","hours":"9:30-22:00","storeImage":null,"mapImage":null,"postcode":null,"platformWarehouse":null,"selfpick":null,"subscribe":null},{"id":303,"name":"海口京华城TOMMY专柜","ename":"海口京华城TOMMY专柜","fullAddress":null,"ename1":"82","ename2":"110.324543,20.034193","province":"海南省","city":"海口市","district":"龙华区","address":"玉沙路21号京华城A区  1FA012","extension":"1","phone":"","hours":"9:00-22:30","storeImage":null,"mapImage":null,"postcode":null,"platformWarehouse":null,"selfpick":null,"subscribe":null},{"id":339,"name":"厦门SM广场TOMMY DENIM专柜","ename":"厦门SM广场TOMMY DENIM专柜","fullAddress":null,"ename1":"110","ename2":"118.131563,24.506301","province":"福建省","city":"厦门市","district":"思明区","address":"仙岳路 SM二期新生活广场C栋红宝石1FC119号","extension":"1","phone":"","hours":"10:00-22:00","storeImage":null,"mapImage":null,"postcode":null,"platformWarehouse":null,"selfpick":null,"subscribe":null},{"id":338,"name":"厦门SM广场TOMMY专柜","ename":"厦门SM广场TOMMY专柜","fullAddress":null,"ename1":"111","ename2":"118.131563,24.506301","province":"福建省","city":"厦门市","district":"思明区","address":"仙岳路 SM二期新生活广场A栋黄宝石1FA109号","extension":"1","phone":"","hours":"11:00-22:00","storeImage":null,"mapImage":null,"postcode":null,"platformWarehouse":null,"selfpick":null,"subscribe":null},{"id":309,"name":"福州泰禾广场TOMMY专柜","ename":"福州泰禾广场TOMMY专柜","fullAddress":null,"ename1":"129","ename2":"119.329974,26.046666","province":"福建省","city":"福州市","district":"晋安区","address":"五四北泰禾广场1F","extension":"1","phone":"","hours":"10:00-22:00","storeImage":null,"mapImage":null,"postcode":null,"platformWarehouse":null,"selfpick":null,"subscribe":null},{"id":318,"name":"昆明顺城TOMMY专柜","ename":"昆明顺城TOMMY专柜","fullAddress":null,"ename1":"341","ename2":"102.714742,25.042343","province":"云南省","city":"昆明市","district":"五华区","address":"东风西路顺城购物中心1F(T-108)","extension":"1","phone":"","hours":"10:00-22:00","storeImage":null,"mapImage":null,"postcode":null,"platformWarehouse":null,"selfpick":null,"subscribe":null},{"id":332,"name":"东莞星河城TOMMY专柜","ename":"东莞星河城TOMMY专柜","fullAddress":null,"ename1":"343","ename2":"113.797669,23.027844","province":"广东省","city":"东莞市","district":"东城区","address":"东城东路229号星河城购物中心一层1008号","extension":"1","phone":"","hours":"10:00-22:00","storeImage":null,"mapImage":null,"postcode":null,"platformWarehouse":null,"selfpick":null,"subscribe":null},{"id":322,"name":"昆明南亚风情第一城TOMMY专柜","ename":"昆明南亚风情第一城TOMMY专柜","fullAddress":null,"ename1":"344","ename2":"102.690879,25.015398","province":"云南省","city":"昆明市","district":"西山区","address":"滇池路南亚风情第一城1F","extension":"1","phone":"","hours":"10:00-22:00","storeImage":null,"mapImage":null,"postcode":null,"platformWarehouse":null,"selfpick":null,"subscribe":null},{"id":328,"name":"佛山保利水城TOMMY专柜","ename":"佛山保利水城TOMMY专柜","fullAddress":null,"ename1":"347","ename2":"113.15487,23.066672","province":"广东省","city":"佛山市","district":"南海区","address":"灯湖东路保利水城购物中心一层S113铺TOMMY专柜","extension":"1","phone":"","hours":"10:00-22:00","storeImage":null,"mapImage":null,"postcode":null,"platformWarehouse":null,"selfpick":null,"subscribe":null},{"id":323,"name":"昆明七彩云南TOMMY专柜","ename":"昆明七彩云南TOMMY专柜","fullAddress":null,"ename1":"366","ename2":"102.832874,24.882917","province":"云南省","city":"昆明市","district":"","address":"彩云北路七彩云南第壹城1F","extension":"1","phone":"","hours":"10:00-22:00","storeImage":null,"mapImage":null,"postcode":null,"platformWarehouse":null,"selfpick":null,"subscribe":null},{"id":335,"name":"中山百汇TOMMY专柜","ename":"中山百汇TOMMY专柜","fullAddress":null,"ename1":"369","ename2":"113.236139,22.691469","province":"广东省","city":"中山市","district":"小榄镇","address":"北秀路43号百汇时代广场1F005","extension":"1","phone":"","hours":"10:00-22:00","storeImage":null,"mapImage":null,"postcode":null,"platformWarehouse":null,"selfpick":null,"subscribe":null},{"id":311,"name":"泉州万达TOMMY专柜","ename":"泉州万达TOMMY专柜","fullAddress":null,"ename1":"378","ename2":"118.604718,24.889276","province":"福建省","city":"泉州市","district":"丰泽区","address":"宝洲路689号万达广场室内步行街一楼1-20号","extension":"1","phone":"","hours":"10:00-22:00","storeImage":null,"mapImage":null,"postcode":null,"platformWarehouse":null,"selfpick":null,"subscribe":null},{"id":313,"name":"泉州中骏城TOMMY专柜","ename":"泉州中骏城TOMMY专柜","fullAddress":null,"ename1":"387","ename2":"118.664771,24.926157","province":"福建省","city":"泉州市","district":"丰泽区","address":"安吉南路69号中骏世界城M108-M109A","extension":"1","phone":"","hours":"10:00-22:00","storeImage":null,"mapImage":null,"postcode":null,"platformWarehouse":null,"selfpick":null,"subscribe":null},{"id":362,"name":"深圳华强北茂业TOMMY专柜","ename":"深圳华强北茂业TOMMY专柜","fullAddress":null,"ename1":"276","ename2":"114.092881,22.551315","province":"广东省","city":"深圳市","district":"福田区","address":"华强北路2009号茂业百货二楼TOMMY专柜","extension":"1","phone":"","hours":"10:00-22:00","storeImage":null,"mapImage":null,"postcode":null,"platformWarehouse":null,"selfpick":null,"subscribe":null},{"id":370,"name":"广州太古汇TOMMY专柜","ename":"广州太古汇TOMMY专柜","fullAddress":null,"ename1":"143","ename2":"113.338885,23.139613","province":"广东省","city":"广州市","district":"天河区","address":"天河路383号太古汇商场裙楼地铁上层MU05号商铺","extension":"1","phone":"","hours":"10:00-22:00","storeImage":null,"mapImage":null,"postcode":null,"platformWarehouse":null,"selfpick":null,"subscribe":null},{"id":352,"name":"贵阳花果园TOMMY专柜","ename":"贵阳花果园TOMMY专柜","fullAddress":null,"ename1":"280","ename2":"106.696289,26.574417","province":"贵州省","city":"贵阳市","district":"南明区","address":"花果园购物中心二楼Tommy专柜  ","extension":"1","phone":"","hours":"10:00-22:00","storeImage":null,"mapImage":null,"postcode":null,"platformWarehouse":null,"selfpick":null,"subscribe":null},{"id":369,"name":"广州TEEMALLTOMMY专柜","ename":"广州TEEMALLTOMMY专柜","fullAddress":null,"ename1":"145","ename2":"113.32881,23.138756","province":"广东省","city":"广州市","district":"天河区","address":"天河路208号天河城广场一楼117-118号铺 ","extension":"1","phone":"","hours":"10:00-22:00","storeImage":null,"mapImage":null,"postcode":null,"platformWarehouse":null,"selfpick":null,"subscribe":null},{"id":342,"name":"厦门信达免税商场TOMMY专柜","ename":"厦门信达免税商场TOMMY专柜","fullAddress":null,"ename1":"283","ename2":"118.104885,24.515189","province":"福建省","city":"厦门市","district":"湖里区","address":"湖里兴隆路27号信达免税商场2F","extension":"1","phone":"","hours":"10:00-22:00","storeImage":null,"mapImage":null,"postcode":null,"platformWarehouse":null,"selfpick":null,"subscribe":null},{"id":340,"name":"厦门大西洋天虹百货TOMMY专柜","ename":"厦门大西洋天虹百货TOMMY专柜","fullAddress":null,"ename1":"285","ename2":"118.085142,24.468612","province":"福建省","city":"厦门市","district":"思明区","address":"湖滨西路9号 大西洋天虹百货1F","extension":"1","phone":"","hours":"10:00-22:00","storeImage":null,"mapImage":null,"postcode":null,"platformWarehouse":null,"selfpick":null,"subscribe":null},{"id":341,"name":"厦门中华城TOMMY专柜","ename":"厦门中华城TOMMY专柜","fullAddress":null,"ename1":"156","ename2":"118.088967,24.458939","province":"福建省","city":"厦门市","district":"思明区","address":"思明南路173号中华城南区之7号二楼","extension":"1","phone":"","hours":"10:00-22:00","storeImage":null,"mapImage":null,"postcode":null,"platformWarehouse":null,"selfpick":null,"subscribe":null},{"id":367,"name":"深圳益田假日广场TOMMY专柜","ename":"深圳益田假日广场TOMMY专柜","fullAddress":null,"ename1":"166","ename2":"113.981585,22.543455","province":"广东省","city":"深圳市","district":"南山区","address":"深南大道9028号益田假日广场负一层B1-5号商铺","extension":"1","phone":"","hours":"10:00-22:00","storeImage":null,"mapImage":null,"postcode":null,"platformWarehouse":null,"selfpick":null,"subscribe":null},{"id":344,"name":"厦门湾悦城TOMMY专柜","ename":"厦门湾悦城TOMMY专柜","fullAddress":null,"ename1":"176","ename2":"118.168556,24.521054","province":"福建省","city":"厦门市","district":"湖里区","address":"日圆二里路1号湾悦城2楼015号","extension":"1","phone":"","hours":"10:00-22:00","storeImage":null,"mapImage":null,"postcode":null,"platformWarehouse":null,"selfpick":null,"subscribe":null},{"id":359,"name":"深圳金光华广场TOMMY专柜","ename":"深圳金光华广场TOMMY专柜","fullAddress":null,"ename1":"179","ename2":"114.12655,22.54593","province":"广东省","city":"深圳市","district":"罗湖区","address":"人民南路2028号金光华广场二楼011、012号商铺","extension":"1","phone":"","hours":"10:00-22:00","storeImage":null,"mapImage":null,"postcode":null,"platformWarehouse":null,"selfpick":null,"subscribe":null},{"id":358,"name":"贵阳金阳国贸TOMMY JEANS专柜","ename":"贵阳金阳国贸TOMMY JEANS专柜","fullAddress":null,"ename1":"249","ename2":"103.201059,27.706169","province":"贵州省","city":"贵阳市","district":"","address":"金阳国贸1楼TOMMY专柜    ","extension":"1","phone":"","hours":"10:00-22:00","storeImage":null,"mapImage":null,"postcode":null,"platformWarehouse":null,"selfpick":null,"subscribe":null},{"id":347,"name":"漳州台商万达威迪芳奥莱TOMMY专柜","ename":"漳州台商万达威迪芳奥莱TOMMY专柜","fullAddress":null,"ename1":"262","ename2":"117.896206,24.507441","province":"福建省","city":"漳州市","district":"","address":"角美镇锦江大道2号漳州台商万达广场1020铺位","extension":"1","phone":"","hours":"10:00-22:00","storeImage":null,"mapImage":null,"postcode":null,"platformWarehouse":null,"selfpick":null,"subscribe":null},{"id":346,"name":"漳州万达广场TOMMY专柜","ename":"漳州万达广场TOMMY专柜","fullAddress":null,"ename1":"267","ename2":"117.684154,24.503823","province":"福建省","city":"漳州市","district":"龙文区","address":"建元东路2号万达广场1F","extension":"1","phone":"","hours":"10:00-22:00","storeImage":null,"mapImage":null,"postcode":null,"platformWarehouse":null,"selfpick":null,"subscribe":null},{"id":374,"name":"佛山佛罗伦萨TOMMY专柜","ename":"佛山佛罗伦萨TOMMY专柜","fullAddress":null,"ename1":"300","ename2":"113.236443,23.010591","province":"广东省","city":"佛山市","district":"南海区","address":"桂城街道疏港路28号佛罗伦萨小镇购物中心E10-E11商铺","extension":"1","phone":"","hours":"10:00-21:00","storeImage":null,"mapImage":null,"postcode":null,"platformWarehouse":null,"selfpick":null,"subscribe":null},{"id":357,"name":"贵阳星力TOMMY专柜","ename":"贵阳星力TOMMY专柜","fullAddress":null,"ename1":"315","ename2":"106.723486,26.577738","province":"贵州省","city":"贵阳市","district":"南明区","address":"富水南路2号星力购物广场二楼Tommy专柜","extension":"1","phone":"","hours":"10:00-22:00","storeImage":null,"mapImage":null,"postcode":null,"platformWarehouse":null,"selfpick":null,"subscribe":null},{"id":372,"name":"广州友谊商店TOMMY专柜","ename":"广州友谊商店TOMMY专柜","fullAddress":null,"ename1":"271","ename2":"113.293647,23.143136","province":"广东省","city":"广州市","district":"越秀区","address":"环市东路371-375号友谊商店南馆一楼TOMMY专柜","extension":"1","phone":"","hours":"10:00-22:00","storeImage":null,"mapImage":null,"postcode":null,"platformWarehouse":null,"selfpick":null,"subscribe":null},{"id":363,"name":"深圳COCO PARK TOMMY专柜","ename":"深圳COCO PARK TOMMY专柜","fullAddress":null,"ename1":"322","ename2":"114.236093,22.697726","province":"广东省","city":"深圳市","district":"福田区","address":"福华三路268号星河COCOPARK一楼L1S-099、100号商铺","extension":"1","phone":"","hours":"10:00-22:00","storeImage":null,"mapImage":null,"postcode":null,"platformWarehouse":null,"selfpick":null,"subscribe":null},{"id":378,"name":"舟山凯虹TOMMY专柜","ename":"舟山凯虹TOMMY专柜","fullAddress":null,"ename1":"340","ename2":"122.325778,29.972555","province":"浙江省","city":"舟山市","district":"普陀区","address":"东港兴普大道288号凯虹广场1楼","extension":"1","phone":"","hours":"周一至周四、周日（9:00-21:30）；周五、周六（9:00-22:00）","storeImage":null,"mapImage":null,"postcode":null,"platformWarehouse":null,"selfpick":null,"subscribe":null},{"id":368,"name":"深圳大梅沙奥莱TOMMY专柜","ename":"深圳大梅沙奥莱TOMMY专柜","fullAddress":null,"ename1":"352","ename2":"114.31568,22.604772","province":"广东省","city":"深圳市","district":"盐田区","address":"大梅沙盐湖路心岛奥特莱斯购物村一期F栋一层2-3号商铺","extension":"1","phone":"","hours":"10:00-22:00","storeImage":null,"mapImage":null,"postcode":null,"platformWarehouse":null,"selfpick":null,"subscribe":null},{"id":354,"name":"贵阳银海元隆TOMMY专柜","ename":"贵阳银海元隆TOMMY专柜","fullAddress":null,"ename1":"375","ename2":"106.714057,26.599647","province":"贵州省","city":"贵阳市","district":"云岩区","address":"北京路星力银海元隆B区一楼1011TOMMY专柜  ","extension":"1","phone":"","hours":"10:00-22:00","storeImage":null,"mapImage":null,"postcode":null,"platformWarehouse":null,"selfpick":null,"subscribe":null},{"id":360,"name":"深圳万象城TOMMY专柜","ename":"深圳万象城TOMMY专柜","fullAddress":null,"ename1":"379","ename2":"114.11721,22.546452","province":"广东省","city":"深圳市","district":"罗湖区","address":"宝安南路1881号万象城三楼390号商铺","extension":"1","phone":"","hours":"10:00-22:00","storeImage":null,"mapImage":null,"postcode":null,"platformWarehouse":null,"selfpick":null,"subscribe":null},{"id":350,"name":"雅丹丽遵义国贸二店TOMMY专柜","ename":"雅丹丽遵义国贸二店TOMMY专柜","fullAddress":null,"ename1":"44","ename2":"106.937283,27.723018","province":"贵州省","city":"遵义市","district":"汇川区","address":"珠海路国贸购物中心1楼TOMMY专柜","extension":"1","phone":"","hours":"10:00-22:00","storeImage":null,"mapImage":null,"postcode":null,"platformWarehouse":null,"selfpick":null,"subscribe":null},{"id":373,"name":"广州中华广场TOMMY专柜","ename":"广州中华广场TOMMY专柜","fullAddress":null,"ename1":"50","ename2":"113.28863,23.13175","province":"广东省","city":"广州市","district":"越秀区","address":"中山三路33号中华广场负一层A1-2铺","extension":"1","phone":"","hours":"10:00-22:00","storeImage":null,"mapImage":null,"postcode":null,"platformWarehouse":null,"selfpick":null,"subscribe":null},{"id":355,"name":"贵阳南国TOMMY JEANS专柜","ename":"贵阳南国TOMMY JEANS专柜","fullAddress":null,"ename1":"61","ename2":"106.719249,26.588115","province":"贵州省","city":"贵阳市","district":"云岩区","address":"中华中路南国花锦2FTOMMY专柜 ","extension":"1","phone":"","hours":"10:00-22:00","storeImage":null,"mapImage":null,"postcode":null,"platformWarehouse":null,"selfpick":null,"subscribe":null},{"id":356,"name":"贵阳南国TOMMY专柜","ename":"贵阳南国TOMMY专柜","fullAddress":null,"ename1":"62","ename2":"106.719249,26.588115","province":"贵州省","city":"贵阳市","district":"云岩区","address":"中华中路南国花锦1FTOMMY专柜 ","extension":"1","phone":"","hours":"10:00-22:00","storeImage":null,"mapImage":null,"postcode":null,"platformWarehouse":null,"selfpick":null,"subscribe":null},{"id":351,"name":"贵阳荔星TOMMY专柜","ename":"贵阳荔星TOMMY专柜","fullAddress":null,"ename1":"63","ename2":"106.722148,26.577635","province":"贵州省","city":"贵阳市","district":"南明区","address":"中华南路52号荔星名店B座二楼TOMMY专柜 ","extension":"1","phone":"","hours":"10:00-22:00","storeImage":null,"mapImage":null,"postcode":null,"platformWarehouse":null,"selfpick":null,"subscribe":null},{"id":345,"name":"厦门集美万达TOMMY专柜","ename":"厦门集美万达TOMMY专柜","fullAddress":null,"ename1":"90","ename2":"118.100226,24.580172","province":"福建省","city":"厦门市","district":"集美区","address":"银江路137号集美万达广场1F","extension":"1","phone":"","hours":"10:00-22:00","storeImage":null,"mapImage":null,"postcode":null,"platformWarehouse":null,"selfpick":null,"subscribe":null},{"id":353,"name":"贵阳汇金TOMMY专柜","ename":"贵阳汇金TOMMY专柜","fullAddress":null,"ename1":"94","ename2":"106.70881,26.587511","province":"贵州省","city":"贵阳市","district":"云岩区","address":"延安路汇金星力城1楼TOMMY专柜","extension":"1","phone":"","hours":"10:00-22:00","storeImage":null,"mapImage":null,"postcode":null,"platformWarehouse":null,"selfpick":null,"subscribe":null},{"id":366,"name":"深圳壹方城TOMMY专柜","ename":"深圳壹方城TOMMY专柜","fullAddress":null,"ename1":"105","ename2":"113.873401,22.578499","province":"广东省","city":"深圳市","district":"宝安区","address":"新安街道新湖路99号（创业二路与新湖路交汇西南处）壹方城一楼L1-032号商铺","extension":"1","phone":"","hours":"10:00-22:00","storeImage":null,"mapImage":null,"postcode":null,"platformWarehouse":null,"selfpick":null,"subscribe":null},{"id":365,"name":"深圳海雅缤纷城TOMMY专柜","ename":"深圳海雅缤纷城TOMMY专柜","fullAddress":null,"ename1":"106","ename2":"113.912491,22.565993","province":"广东省","city":"深圳市","district":"宝安区","address":"新安街道建安一路99号海雅缤纷城二楼L2-039号商铺","extension":"1","phone":"","hours":"10:00-22:00","storeImage":null,"mapImage":null,"postcode":null,"platformWarehouse":null,"selfpick":null,"subscribe":null},{"id":343,"name":"厦门湖里万达TOMMY专柜","ename":"厦门湖里万达TOMMY专柜","fullAddress":null,"ename1":"109","ename2":"118.185924,24.508117","province":"福建省","city":"厦门市","district":"湖里区","address":"仙岳路4666号万达广场室内步行街一层106号","extension":"1","phone":"","hours":"10:00-22:00","storeImage":null,"mapImage":null,"postcode":null,"platformWarehouse":null,"selfpick":null,"subscribe":null},{"id":348,"name":"龙岩万宝TOMMY专柜","ename":"龙岩万宝TOMMY专柜","fullAddress":null,"ename1":"124","ename2":"117.026828,25.0916","province":"福建省","city":"龙岩市","district":"新罗区","address":"西陂街道龙岩大道388号万宝广场1F","extension":"1","phone":"","hours":"10:00-22:00","storeImage":null,"mapImage":null,"postcode":null,"platformWarehouse":null,"selfpick":null,"subscribe":null},{"id":349,"name":"贵阳亨特TOMMY JEANS专柜","ename":"贵阳亨特TOMMY JEANS专柜","fullAddress":null,"ename1":"134","ename2":"106.726661,26.582387","province":"贵州省","city":"贵阳市","district":"云岩区","address":"文昌南路亨特城市广场1楼TOMMY专柜","extension":"1","phone":"","hours":"10:00-22:00","storeImage":null,"mapImage":null,"postcode":null,"platformWarehouse":null,"selfpick":null,"subscribe":null},{"id":12,"name":"上海久光百货TOMMY男装专柜","ename":"上海久光百货TOMMY男装专柜","fullAddress":null,"ename1":"208","ename2":"121.453022,31.229858","province":"上海","city":"上海市","district":"静安区","address":"南京西路1618号5F","extension":"1","phone":"","hours":"10：00-22：00","storeImage":null,"mapImage":null,"postcode":null,"platformWarehouse":"","selfpick":false,"subscribe":false},{"id":2,"name":"上海宝山万达TOMMY 专柜","ename":"上海宝山万达TOMMY 专柜","fullAddress":null,"ename1":"307","ename2":"121.452895,31.330507","province":"上海","city":"上海市","district":"宝山区","address":"共和新路一二八纪念路968号1F ","extension":"1","phone":"","hours":"10：00-22：00","storeImage":null,"mapImage":null,"postcode":null,"platformWarehouse":"","selfpick":false,"subscribe":false},{"id":1,"name":"上海宝山万达TOMMY JEANS专柜","ename":"上海宝山万达TOMMY JEANS专柜","fullAddress":null,"ename1":"306","ename2":"121.452895,31.330507","province":"上海","city":"上海市","district":"宝山区","address":"共和新路一二八纪念路968号1F ","extension":"1","phone":"","hours":"10：00-22：00","storeImage":null,"mapImage":null,"postcode":null,"platformWarehouse":"","selfpick":false,"subscribe":false},{"id":7,"name":"上海百联又一城TOMMY专柜","ename":"上海百联又一城TOMMY专柜","fullAddress":null,"ename1":"154","ename2":"121.522483,31.307051","province":"上海","city":"上海市","district":"杨浦区","address":"淞沪路8号1F","extension":"1","phone":"","hours":"10：00-22：00","storeImage":null,"mapImage":null,"postcode":null,"platformWarehouse":null,"selfpick":null,"subscribe":null},{"id":21,"name":"上海百联世纪购物中心TOMMY专柜","ename":"上海百联世纪购物中心TOMMY专柜","fullAddress":null,"ename1":"161","ename2":"121.533581,31.236083","province":"上海","city":"上海市","district":"浦东新区","address":"世纪大道1217号1F","extension":"1","phone":"","hours":"10：00-22：00","storeImage":null,"mapImage":null,"postcode":null,"platformWarehouse":null,"selfpick":null,"subscribe":null},{"id":26,"name":"上海青浦奥莱TOMMY OUTLET","ename":"上海青浦奥莱TOMMY OUTLET","fullAddress":null,"ename1":"281","ename2":"121.234026,31.163195","province":"上海","city":"上海市","district":"青浦区","address":"沪青平公路2888号B177","extension":"1","phone":"","hours":"10：00-22：00","storeImage":null,"mapImage":null,"postcode":null,"platformWarehouse":null,"selfpick":null,"subscribe":null},{"id":15,"name":"上海友谊南方 TOMMY 专柜","ename":"上海友谊南方 TOMMY 专柜","fullAddress":null,"ename1":"282","ename2":"121.406631,31.137061","province":"上海","city":"上海市","district":"闵行区","address":"沪闵路7250号2F","extension":"1","phone":"","hours":"10：00-22：00","storeImage":null,"mapImage":null,"postcode":null,"platformWarehouse":null,"selfpick":null,"subscribe":null},{"id":20,"name":"上海港汇TOMMY专柜","ename":"上海港汇TOMMY专柜","fullAddress":null,"ename1":"287","ename2":"121.443059,31.201343","province":"上海","city":"上海市","district":"徐汇区","address":"虹桥路1号2F","extension":"1","phone":"","hours":"10：00-22：00","storeImage":null,"mapImage":null,"postcode":null,"platformWarehouse":null,"selfpick":null,"subscribe":null},{"id":30,"name":"上海太古汇TOMMY专柜","ename":"上海太古汇TOMMY专柜","fullAddress":null,"ename1":"163","ename2":"121.469715,31.234299","province":"上海","city":"上海市","district":"静安区","address":"石门一路288号2F","extension":"1","phone":"","hours":"10：00-22：00","storeImage":null,"mapImage":null,"postcode":null,"platformWarehouse":null,"selfpick":null,"subscribe":null},{"id":28,"name":"上海浦东奕欧来奥莱TOMMY专柜","ename":"上海浦东奕欧来奥莱TOMMY专柜","fullAddress":null,"ename1":"167","ename2":"121.687554,31.146467","province":"上海","city":"上海市","district":"浦东新区","address":"申迪东路88号 G1","extension":"1","phone":"","hours":"周一至周五：10：00-21：0；周六至周日：09：00-21：0；节假日：09：00-21：30","storeImage":null,"mapImage":null,"postcode":null,"platformWarehouse":null,"selfpick":null,"subscribe":null},{"id":5,"name":"上海浦东机场2号航站楼TOMMY专柜","ename":"上海浦东机场2号航站楼TOMMY专柜","fullAddress":null,"ename1":"199","ename2":"121.354799,31.193247","province":"上海","city":"上海市","district":"浦东新区","address":"浦东机场T2航站楼C4-F2","extension":"1","phone":"","hours":"10：00-22：00","storeImage":null,"mapImage":null,"postcode":null,"platformWarehouse":null,"selfpick":null,"subscribe":null},{"id":17,"name":"上海新世界TOMMY专柜","ename":"上海新世界TOMMY专柜","fullAddress":null,"ename1":"207","ename2":"121.480193,31.241095","province":"上海","city":"上海市","district":"静安区","address":"南京西路2-88号5F","extension":"1","phone":"","hours":"10：00-22：00","storeImage":null,"mapImage":null,"postcode":null,"platformWarehouse":null,"selfpick":null,"subscribe":null},{"id":8,"name":"上海大宁国际TOMMY专柜","ename":"上海大宁国际TOMMY专柜","fullAddress":null,"ename1":"308","ename2":"121.459185,31.281159","province":"上海","city":"上海市","district":"静安区","address":"共和新路1978号104C-106","extension":"1","phone":"","hours":"10：00-22：00","storeImage":null,"mapImage":null,"postcode":null,"platformWarehouse":null,"selfpick":null,"subscribe":null},{"id":31,"name":"上海嘉里中心TOMMY专柜","ename":"上海嘉里中心TOMMY专柜","fullAddress":null,"ename1":"209","ename2":"121.456545,31.230407","province":"上海","city":"上海市","district":"静安区","address":"南京西路1515号N2-23","extension":"1","phone":"","hours":"10：00-22：00","storeImage":null,"mapImage":null,"postcode":null,"platformWarehouse":null,"selfpick":null,"subscribe":null},{"id":14,"name":"上海梅陇镇广场TOMMY专柜","ename":"上海梅陇镇广场TOMMY专柜","fullAddress":null,"ename1":"210","ename2":"121.463055,31.234904","province":"上海","city":"上海市","district":"静安区","address":"南京西路1038号2F","extension":"1","phone":"","hours":"10：00-22：00","storeImage":null,"mapImage":null,"postcode":null,"platformWarehouse":null,"selfpick":null,"subscribe":null},{"id":379,"name":"武汉佛罗伦萨奥莱TOMMY专柜","ename":"武汉佛罗伦萨奥莱TOMMY专柜","fullAddress":null,"ename1":"314","ename2":"114.666372,30.493939","province":"湖北省","city":"鄂州市","district":"","address":"高新大道佛罗伦萨小镇奥特莱斯G07-08 TOMMY专柜","extension":"1","phone":"","hours":"10:00-21:00","storeImage":null,"mapImage":null,"postcode":null,"platformWarehouse":null,"selfpick":null,"subscribe":null},{"id":6,"name":"上海宝乐汇TOMMY专柜","ename":"上海宝乐汇TOMMY专柜","fullAddress":null,"ename1":"214","ename2":"121.492052,31.405282","province":"上海","city":"上海市","district":"宝山区","address":"牡丹江路1569号1F","extension":"1","phone":"","hours":"10：00-22：00","storeImage":null,"mapImage":null,"postcode":null,"platformWarehouse":null,"selfpick":null,"subscribe":null},{"id":33,"name":"北京东方新天地TOMMY专柜","ename":"北京东方新天地TOMMY专柜","fullAddress":null,"ename1":"336","ename2":"116.418745,39.915936","province":"北京","city":"北京市","district":"东城区","address":"东长安街1号北京东方广场东方新天地商场1F #AA59A&B  ","extension":"1","phone":"","hours":"10:00-22:00","storeImage":null,"mapImage":null,"postcode":null,"platformWarehouse":null,"selfpick":null,"subscribe":null},{"id":38,"name":"北京燕莎TOMMY OUTLETS","ename":"北京燕莎TOMMY OUTLETS","fullAddress":null,"ename1":"337","ename2":"116.492417,39.883274","province":"北京","city":"北京市","district":"朝阳区","address":"东四环南路9号燕莎奥特莱斯购物中心C座一层","extension":"1","phone":"","hours":"10:00-22:00","storeImage":null,"mapImage":null,"postcode":null,"platformWarehouse":null,"selfpick":null,"subscribe":null},{"id":22,"name":"上海东方商厦徐汇店TOMMY专柜","ename":"上海东方商厦徐汇店TOMMY专柜","fullAddress":null,"ename1":"365","ename2":"121.444565,31.19935","province":"上海","city":"上海市","district":"徐汇区","address":"漕溪北路8号4F","extension":"1","phone":"","hours":"10：00-22：00","storeImage":null,"mapImage":null,"postcode":null,"platformWarehouse":null,"selfpick":null,"subscribe":null},{"id":35,"name":"北京国贸TOMMY专柜","ename":"北京国贸TOMMY专柜","fullAddress":null,"ename1":"373","ename2":"116.467296,39.918288","province":"北京","city":"北京市","district":"朝阳区","address":"北京市朝阳区建国门外大街1号国贸商城地下一层WB128","extension":"1","phone":"","hours":"10：00-21：30","storeImage":null,"mapImage":null,"postcode":null,"platformWarehouse":null,"selfpick":null,"subscribe":null},{"id":27,"name":"上海佛罗伦萨TOMMY OUTLET","ename":"上海佛罗伦萨TOMMY OUTLET","fullAddress":null,"ename1":"41","ename2":"121.77075,31.204254","province":"上海","city":"上海市","district":"浦东新区","address":"卓耀路58弄 H区-17","extension":"1","phone":"","hours":"周一至周五：10：00-21：0；周六至周日：09：00-21：3；节假日：09：00-21：30","storeImage":null,"mapImage":null,"postcode":null,"platformWarehouse":null,"selfpick":null,"subscribe":null},{"id":10,"name":"上海月星环球港TOMMY专柜","ename":"上海月星环球港TOMMY专柜","fullAddress":null,"ename1":"59","ename2":"121.418952,31.239412","province":"上海","city":"上海市","district":"普陀区","address":"中山北路3300号1F ","extension":"1","phone":"","hours":"11:00-23:00","storeImage":null,"mapImage":null,"postcode":null,"platformWarehouse":null,"selfpick":null,"subscribe":null},{"id":11,"name":"上海中环百联TOMMY专柜","ename":"上海中环百联TOMMY专柜","fullAddress":null,"ename1":"66","ename2":"121.390644,31.251132","province":"上海","city":"上海市","district":"普陀区","address":"真光路1288号1F ","extension":"1","phone":"","hours":"10：00-22：00","storeImage":null,"mapImage":null,"postcode":null,"platformWarehouse":null,"selfpick":null,"subscribe":null},{"id":29,"name":"上海长宁来福士TOMMY专柜","ename":"上海长宁来福士TOMMY专柜","fullAddress":null,"ename1":"71","ename2":"121.421588,31.223655","province":"上海","city":"上海市","district":"长宁区","address":"长宁路1139号1F","extension":"1","phone":"","hours":"10：00-22：00","storeImage":null,"mapImage":null,"postcode":null,"platformWarehouse":null,"selfpick":null,"subscribe":null},{"id":18,"name":"上海浦东八佰伴TOMMY 专柜","ename":"上海浦东八佰伴TOMMY 专柜","fullAddress":null,"ename1":"76","ename2":"121.524003,31.233693","province":"上海","city":"上海市","district":"浦东新区","address":"张杨路501号2F","extension":"1","phone":"","hours":"9：00-22：00","storeImage":null,"mapImage":null,"postcode":null,"platformWarehouse":null,"selfpick":null,"subscribe":null},{"id":19,"name":"上海金桥国际TOMMY专柜","ename":"上海金桥国际TOMMY专柜","fullAddress":null,"ename1":"77","ename2":"121.585095,31.262781","province":"上海","city":"上海市","district":"浦东新区","address":"张杨路3611弄8号1F","extension":"1","phone":"","hours":"10：00-22：00","storeImage":null,"mapImage":null,"postcode":null,"platformWarehouse":null,"selfpick":null,"subscribe":null},{"id":9,"name":"上海新天地TOMMY专柜","ename":"上海新天地TOMMY专柜","fullAddress":null,"ename1":"97","ename2":"121.481596,31.225089","province":"上海","city":"上海市","district":"静安区","address":"兴业路123弄6号楼1F","extension":"1","phone":"","hours":"10：00-22：00","storeImage":null,"mapImage":null,"postcode":null,"platformWarehouse":null,"selfpick":null,"subscribe":null},{"id":4,"name":"上海西郊百联TOMMY专柜","ename":"上海西郊百联TOMMY专柜","fullAddress":null,"ename1":"112","ename2":"121.37764,31.214059","province":"上海","city":"上海市","district":"长宁区","address":"仙霞西路88号1F ","extension":"1","phone":"","hours":"周日-周四：10：00-21：30 ；周五-周六：10：00-22：00                    ","storeImage":null,"mapImage":null,"postcode":null,"platformWarehouse":null,"selfpick":null,"subscribe":null},{"id":34,"name":"北京合生汇TOMMY专柜","ename":"北京合生汇TOMMY专柜","fullAddress":null,"ename1":"119","ename2":"116.485434,39.90002","province":"北京","city":"北京市","district":"朝阳区","address":"西大望路甲22号一层34/35号","extension":"1","phone":"","hours":"10:00-22:00","storeImage":null,"mapImage":null,"postcode":null,"platformWarehouse":null,"selfpick":null,"subscribe":null},{"id":16,"name":"上海市一百TOMMY专柜","ename":"上海市一百TOMMY专柜","fullAddress":null,"ename1":"122","ename2":"121.480808,31.241772","province":"上海","city":"上海市","district":"黄浦区","address":"西藏中路500号1F","extension":"1","phone":"","hours":"9:30-21:30","storeImage":null,"mapImage":null,"postcode":null,"platformWarehouse":null,"selfpick":null,"subscribe":null},{"id":32,"name":"上海万象城TOMMY专柜","ename":"上海万象城TOMMY专柜","fullAddress":null,"ename1":"131","ename2":"121.376403,31.177025","province":"上海","city":"上海市","district":"闵行区","address":"吴中路1599号1楼","extension":"1","phone":"","hours":"10：00-22：00","storeImage":null,"mapImage":null,"postcode":null,"platformWarehouse":null,"selfpick":null,"subscribe":null},{"id":37,"name":"北京王府井TOMMY专柜","ename":"北京王府井TOMMY专柜","fullAddress":null,"ename1":"138","ename2":"116.416444,39.920488","province":"北京","city":"北京市","district":"东城区","address":"王府井大街255号王府井百货大楼3层 ","extension":"1","phone":"","hours":"10:00-22:00","storeImage":null,"mapImage":null,"postcode":null,"platformWarehouse":null,"selfpick":null,"subscribe":null},{"id":247,"name":"重庆万象城TOMMY专柜","ename":"重庆万象城TOMMY专柜","fullAddress":null,"ename1":"275","ename2":"106.524824,29.522287","province":"重庆","city":"重庆市","district":"九龙坡区","address":"华润中心万象城L2层L215","extension":"1","phone":"","hours":"09:30-21:30","storeImage":null,"mapImage":null,"postcode":null,"platformWarehouse":null,"selfpick":null,"subscribe":null},{"id":46,"name":"北京凤凰汇TOMMY专柜","ename":"北京凤凰汇TOMMY专柜","fullAddress":null,"ename1":"159","ename2":"116.464183,39.968694","province":"北京","city":"北京市","district":"朝阳区","address":"曙光西里5号凤凰汇购物中心F座1层","extension":"1","phone":"","hours":"10:00-22:00","storeImage":null,"mapImage":null,"postcode":null,"platformWarehouse":null,"selfpick":null,"subscribe":null},{"id":53,"name":"北京望京凯德TOMMY专柜","ename":"北京望京凯德TOMMY专柜","fullAddress":null,"ename1":"301","ename2":"116.475535,39.997993","province":"北京","city":"北京市","district":"朝阳区","address":"广顺北大街33号院213号楼01层101内01-07号","extension":"1","phone":"","hours":"10:00-22:00","storeImage":null,"mapImage":null,"postcode":null,"platformWarehouse":null,"selfpick":null,"subscribe":null},{"id":50,"name":"北京华润五彩城TOMMY专柜","ename":"北京华润五彩城TOMMY专柜","fullAddress":null,"ename1":"188","ename2":"116.339363,40.036162","province":"北京","city":"北京市","district":"海淀区","address":"清河中街68号华润五彩城二期1层","extension":"1","phone":"","hours":"10:00-22:00","storeImage":null,"mapImage":null,"postcode":null,"platformWarehouse":null,"selfpick":null,"subscribe":null},{"id":43,"name":"北京百盛TOMMY专柜","ename":"北京百盛TOMMY专柜","fullAddress":null,"ename1":"317","ename2":"116.365211,39.913499","province":"北京","city":"北京市","district":"海淀区","address":"复兴门百盛购物中心三层","extension":"1","phone":"","hours":"10:00-22:00","storeImage":null,"mapImage":null,"postcode":null,"platformWarehouse":null,"selfpick":null,"subscribe":null},{"id":49,"name":"北京凯德晶品TOMMY专柜","ename":"北京凯德晶品TOMMY专柜","fullAddress":null,"ename1":"318","ename2":"116.331189,39.972361","province":"北京","city":"北京市","district":"海淀区","address":"复兴路51号凯德精品购物中心一层14号","extension":"1","phone":"","hours":"10:00-22:00","storeImage":null,"mapImage":null,"postcode":null,"platformWarehouse":null,"selfpick":null,"subscribe":null},{"id":48,"name":"北京翠微TOMMY专柜","ename":"北京翠微TOMMY专柜","fullAddress":null,"ename1":"319","ename2":"116.310759,39.914344","province":"北京","city":"北京市","district":"海淀区","address":"复兴路33号翠微百货二楼","extension":"1","phone":"","hours":"周五 周六10:00-22:00 周日至周四10：00-21：30","storeImage":null,"mapImage":null,"postcode":null,"platformWarehouse":null,"selfpick":null,"subscribe":null},{"id":246,"name":"重庆百联TOMMY专柜","ename":"重庆百联TOMMY专柜","fullAddress":null,"ename1":"203","ename2":"106.56744,29.534821","province":"重庆","city":"重庆市","district":"南岸区","address":"南坪西路38号百联上海城购物中心1层","extension":"1","phone":"","hours":"10:00-22:00","storeImage":null,"mapImage":null,"postcode":null,"platformWarehouse":null,"selfpick":null,"subscribe":null},{"id":248,"name":"重庆南坪万达TOMMY专柜","ename":"重庆南坪万达TOMMY专柜","fullAddress":null,"ename1":"204","ename2":"108.914451,28.407346","province":"重庆","city":"重庆市","district":"南岸区","address":"南坪万达商业步行街LG层B2-25","extension":"1","phone":"","hours":"10:00-22:00","storeImage":null,"mapImage":null,"postcode":null,"platformWarehouse":null,"selfpick":null,"subscribe":null},{"id":376,"name":"北京丰科万达TOMMY专柜","ename":"北京丰科万达TOMMY专柜","fullAddress":null,"ename1":"332","ename2":"116.305256,39.830485","province":"北京","city":"北京市","district":"丰台区","address":"丰科路6号院万达广场1层1012  TOMMY 专柜","extension":"1","phone":"","hours":"10:00-22:00","storeImage":null,"mapImage":null,"postcode":null,"platformWarehouse":null,"selfpick":null,"subscribe":null},{"id":41,"name":"北京八达岭TOMMY OUTLETS","ename":"北京八达岭TOMMY OUTLETS","fullAddress":null,"ename1":"206","ename2":"116.302529,39.879369","province":"北京","city":"北京市","district":"昌平区","address":"南口镇陈庄村八达岭奥特莱斯B604-605","extension":"1","phone":"","hours":"周末节假日9：30-21：30  周一-周四10:00-21:00  ","storeImage":null,"mapImage":null,"postcode":null,"platformWarehouse":null,"selfpick":null,"subscribe":null},{"id":47,"name":"北京燕莎友谊商城TOMMY专柜","ename":"北京燕莎友谊商城TOMMY专柜","fullAddress":null,"ename1":"228","ename2":"116.469799,39.954482","province":"北京","city":"北京市","district":"朝阳区","address":"亮马桥路52号燕莎友谊商城4层 ","extension":"1","phone":"","hours":"10:00-22:00","storeImage":null,"mapImage":null,"postcode":null,"platformWarehouse":null,"selfpick":null,"subscribe":null},{"id":56,"name":"北京蓝色港湾TOMMY专柜","ename":"北京蓝色港湾TOMMY专柜","fullAddress":null,"ename1":"361","ename2":"116.480181,39.954992","province":"北京","city":"北京市","district":"朝阳区","address":"朝阳公园路6号院1号楼L-SMM-57 ","extension":"1","phone":"","hours":"10:00-22:00","storeImage":null,"mapImage":null,"postcode":null,"platformWarehouse":null,"selfpick":null,"subscribe":null},{"id":240,"name":"新世纪百货(沙坪坝店)店","ename":"新世纪百货(沙坪坝店)店","fullAddress":null,"ename1":null,"ename2":"106.467989,29.563957","province":"重庆","city":"重庆市","district":"沙坪坝","address":"双巷子6号新世纪百货凯瑞商都2楼","extension":"1","phone":"023-88929881","hours":"10:00-22:00","storeImage":null,"mapImage":null,"postcode":null,"platformWarehouse":null,"selfpick":null,"subscribe":null},{"id":52,"name":"北京大悦城TOMMY专柜","ename":"北京大悦城TOMMY专柜","fullAddress":null,"ename1":"362","ename2":"116.525379,39.931187","province":"北京","city":"北京市","district":"朝阳区","address":"朝阳北路101号与青年路交叉口东北角朝阳大悦城1层","extension":"1","phone":"","hours":"10:00-22:00","storeImage":null,"mapImage":null,"postcode":null,"platformWarehouse":null,"selfpick":null,"subscribe":null},{"id":55,"name":"北京龙湖长楹天街TOMMY专柜","ename":"北京龙湖长楹天街TOMMY专柜","fullAddress":null,"ename1":"364","ename2":"116.604005,39.930698","province":"北京","city":"北京市","district":"朝阳区","address":"常通路长楹天街购物中心东区1F-09/10A号","extension":"1","phone":"","hours":"10:00-22:00","storeImage":null,"mapImage":null,"postcode":null,"platformWarehouse":null,"selfpick":null,"subscribe":null},{"id":44,"name":"北京爱琴海TOMMY专柜","ename":"北京爱琴海TOMMY专柜","fullAddress":null,"ename1":"374","ename2":"116.521695,39.958953","province":"北京","city":"北京市","district":"朝阳区","address":"北京市朝阳区","extension":"1","phone":"","hours":"10:00-22:00","storeImage":null,"mapImage":null,"postcode":null,"platformWarehouse":null,"selfpick":null,"subscribe":null},{"id":57,"name":"北京祥云小镇TOMMY专柜","ename":"北京祥云小镇TOMMY专柜","fullAddress":null,"ename1":"237","ename2":"116.556086,40.10552","province":"北京","city":"北京市","district":"顺义区","address":"空港工业B区祥云小镇3-105","extension":"1","phone":"","hours":"冬季10:00-21:00  夏天10：00-21：30","storeImage":null,"mapImage":null,"postcode":null,"platformWarehouse":null,"selfpick":null,"subscribe":null},{"id":39,"name":"北京斯普瑞斯奥莱TOMMY专柜","ename":"北京斯普瑞斯奥莱TOMMY专柜","fullAddress":null,"ename1":"247","ename2":"116.601413,40.018613","province":"北京","city":"北京市","district":"朝阳区","address":"金盏乡森林公园东一号斯普瑞斯二期一层B1-22","extension":"1","phone":"","hours":"10:00-21:00","storeImage":null,"mapImage":null,"postcode":null,"platformWarehouse":null,"selfpick":null,"subscribe":null},{"id":238,"name":"重庆北城天街TOMMY专柜","ename":"重庆北城天街TOMMY专柜","fullAddress":null,"ename1":"377","ename2":"106.537545,29.583632","province":"重庆","city":"重庆市","district":"江北区","address":"北城天街8号B馆B1-001b","extension":"1","phone":"","hours":"10:00-21:30","storeImage":null,"mapImage":null,"postcode":null,"platformWarehouse":null,"selfpick":null,"subscribe":null},{"id":45,"name":"北京华联万柳TOMMY 专柜","ename":"北京华联万柳TOMMY 专柜","fullAddress":null,"ename1":"382","ename2":"116.301232,39.979094","province":"北京","city":"北京市","district":"海淀区","address":"巴沟路2号万柳华联1F","extension":"1","phone":"","hours":"9:30-21:30","storeImage":null,"mapImage":null,"postcode":null,"platformWarehouse":null,"selfpick":null,"subscribe":null},{"id":250,"name":"重庆爱琴海TOMMY专柜","ename":"重庆爱琴海TOMMY专柜","fullAddress":null,"ename1":"253","ename2":"106.56786,29.677424","province":"重庆","city":"重庆市","district":"","address":"金开大道爱琴海购物公园L1-29a","extension":"1","phone":"","hours":"10:00-22:00","storeImage":null,"mapImage":null,"postcode":null,"platformWarehouse":null,"selfpick":null,"subscribe":null},{"id":508,"name":"乐清时代TOMMY专柜","ename":"乐清时代TOMMY专柜","fullAddress":null,"ename1":"31","ename2":"120.976321,28.117159","province":"浙江省","city":"温州市","district":"乐清市","address":"清远路221号乐清时代广场一楼\r\n","extension":"1","phone":"","hours":"10:00-22:00","storeImage":null,"mapImage":null,"postcode":null,"platformWarehouse":null,"selfpick":null,"subscribe":null},{"id":244,"name":"重庆龙湖时代天街TOMMY专柜","ename":"重庆龙湖时代天街TOMMY专柜","fullAddress":null,"ename1":"74","ename2":"106.527394,29.546539","province":"重庆","city":"重庆市","district":"渝中区","address":"长江二路74号龙湖时代天街A馆L1-07","extension":"1","phone":"","hours":"10:00-22:00","storeImage":null,"mapImage":null,"postcode":null,"platformWarehouse":null,"selfpick":null,"subscribe":null},{"id":42,"name":"北京金源燕莎TOMMY专柜","ename":"北京金源燕莎TOMMY专柜","fullAddress":null,"ename1":"81","ename2":"116.292496,39.964218","province":"北京","city":"北京市","district":"海淀区","address":"远大路1号金源燕莎MALL一层1034","extension":"1","phone":"","hours":"周末节假日10：00-22：00  周一-周四10：00-21：30","storeImage":null,"mapImage":null,"postcode":null,"platformWarehouse":null,"selfpick":null,"subscribe":null},{"id":245,"name":"重庆西城天街TOMMY专柜","ename":"重庆西城天街TOMMY专柜","fullAddress":null,"ename1":"91","ename2":"106.519673,29.513364","province":"重庆","city":"重庆市","district":"九龙坡区","address":"杨家坪珠江路48号西城天街1F-13","extension":"1","phone":"","hours":"10:00-22:00","storeImage":null,"mapImage":null,"postcode":null,"platformWarehouse":null,"selfpick":null,"subscribe":null},{"id":58,"name":"北京荟聚TOMMY专柜","ename":"北京荟聚TOMMY专柜","fullAddress":null,"ename1":"98","ename2":"116.374251,39.800685","province":"北京","city":"北京市","district":"大兴区","address":"兴宁街15号荟聚西红门购物中心5-01-127-SU单元","extension":"1","phone":"","hours":"10:00-22:00","storeImage":null,"mapImage":null,"postcode":null,"platformWarehouse":null,"selfpick":null,"subscribe":null},{"id":51,"name":"北京通州万达TOMMY专柜","ename":"北京通州万达TOMMY专柜","fullAddress":null,"ename1":"102","ename2":"116.648375,39.912349","province":"北京","city":"北京市","district":"通州区","address":"新华西街万达广场1层1007B ","extension":"1","phone":"","hours":"10:00-22:00","storeImage":null,"mapImage":null,"postcode":null,"platformWarehouse":null,"selfpick":null,"subscribe":null},{"id":249,"name":"重庆协信星光广场解放碑TOMMY专柜","ename":"重庆协信星光广场解放碑TOMMY专柜","fullAddress":null,"ename1":"0","ename2":"106.587114,29.564725","province":"重庆","city":"重庆市","district":"渝中区","address":"五一路99号协信星光广场L206号","extension":"1","phone":"","hours":"10:00-22:00","storeImage":null,"mapImage":null,"postcode":null,"platformWarehouse":null,"selfpick":null,"subscribe":null},{"id":242,"name":"重庆英利IFC TOMMY专柜","ename":"重庆英利IFC TOMMY专柜","fullAddress":null,"ename1":"261","ename2":"106.487189,29.480488","province":"重庆","city":"重庆市","district":"渝中区","address":"解放碑民权路26号英利IFC国际购物广场1楼03号","extension":"1","phone":"","hours":"10:00-22:00","storeImage":null,"mapImage":null,"postcode":null,"platformWarehouse":null,"selfpick":null,"subscribe":null},{"id":241,"name":"重庆协信星光时代TOMMY专柜","ename":"重庆协信星光时代TOMMY专柜","fullAddress":null,"ename1":"265","ename2":"106.577929,29.528256","province":"重庆","city":"重庆市","district":"南岸区","address":"江南大道28号协信星光时代广场平街1楼011号","extension":"1","phone":"","hours":"10:00-22:00","storeImage":null,"mapImage":null,"postcode":null,"platformWarehouse":null,"selfpick":null,"subscribe":null},{"id":239,"name":"重庆世纪新都TOMMY专柜","ename":"重庆世纪新都TOMMY专柜","fullAddress":null,"ename1":"268","ename2":"106.539085,29.579455","province":"重庆","city":"重庆市","district":"","address":"建新北路1号新世纪百货世纪新都6F","extension":"1","phone":"","hours":"10:00-22:00","storeImage":null,"mapImage":null,"postcode":null,"platformWarehouse":null,"selfpick":null,"subscribe":null},{"id":243,"name":"重庆奥特莱斯TOMMY专柜","ename":"重庆奥特莱斯TOMMY专柜","fullAddress":null,"ename1":"269","ename2":"106.605173,29.66386","province":"重庆","city":"重庆市","district":"渝北区","address":"机场高速经开段一号西部奥特莱斯广场1F- B102","extension":"1","phone":"","hours":"10:00-22:00","storeImage":null,"mapImage":null,"postcode":null,"platformWarehouse":null,"selfpick":null,"subscribe":null}]